{
  "version": 0.6,
  "generator": "Overpass API 0.7.62.7 375dc00a",
  "osm3s": {
    "timestamp_osm_base": "2025-06-23T13:15:41Z",
    "copyright": "The data included in this document is from www.openstreetmap.org. The data is made available under ODbL."
  },
  "elements": [

    {
      "type": "node",
      "id": 5177435692,
      "lat": 10.0398635,
      "lon": 105.7612433,
      "tags": {
        "bus": "yes",
        "highway": "bus_stop",
        "name": "BHXH Ninh Kiều",
        "public_transport": "platform"
      }
    },
    {
      "type": "node",
      "id": 5177699273,
      "lat": 10.0290079,
      "lon": 105.7540778,
      "tags": {
        "bus": "yes",
        "highway": "bus_stop",
        "mai_che": "yes",
        "name": "Bệnh viện Huyết học - Truyền máu Cần Thơ",
        "public_transport": "platform"
      }
    },
    {
      "type": "node",
      "id": 5177699281,
      "lat": 10.0341047,
      "lon": 105.7554088,
      "tags": {
        "bus": "yes",
        "highway": "bus_stop",
        "name": "Bệnh viện Trường Đại học Y dược Cần Thơ",
        "public_transport": "platform"
      }
    },
    {
      "type": "node",
      "id": 11917454669,
      "lat": 10.1063941,
      "lon": 105.6685300,
      "tags": {
        "bus": "yes",
        "highway": "bus_stop",
        "name": "Đối diện Nhà trọ Mỳ",
        "public_transport": "platform"
      }
    },
    {
      "type": "node",
      "id": 11917454670,
      "lat": 10.1073249,
      "lon": 105.6650159,
      "tags": {
        "bus": "yes",
        "highway": "bus_stop",
        "name": "Cây xăng Phú Xương",
        "public_transport": "platform"
      }
    },
    {
      "type": "node",
      "id": 11917454671,
      "lat": 10.1085835,
      "lon": 105.6603569,
      "tags": {
        "bus": "yes",
        "highway": "bus_stop",
        "name": "Trường Tiểu học Nguyễn Huệ",
        "public_transport": "platform"
      }
    },
    {
      "type": "node",
      "id": 11917454672,
      "lat": 10.1092203,
      "lon": 105.6579166,
      "tags": {
        "bus": "yes",
        "highway": "bus_stop",
        "name": "Đối diện Cây xăng Phước Thới",
        "public_transport": "platform"
      }
    },
    {
      "type": "node",
      "id": 11917454673,
      "lat": 10.1102221,
      "lon": 105.6542464,
      "tags": {
        "bus": "yes",
        "highway": "bus_stop",
        "name": "Cafe Phương Loan",
        "public_transport": "platform"
      }
    },
    {
      "type": "node",
      "id": 11917454674,
      "lat": 10.1109578,
      "lon": 105.6517583,
      "tags": {
        "bus": "yes",
        "highway": "bus_stop",
        "name": "Cafe Lan Thảo",
        "public_transport": "platform"
      }
    },
    {
      "type": "node",
      "id": 11917454675,
      "lat": 10.1140696,
      "lon": 105.6408004,
      "tags": {
        "bus": "yes",
        "highway": "bus_stop",
        "public_transport": "platform"
      }
    },
    {
      "type": "node",
      "id": 11917454682,
      "lat": 10.1126395,
      "lon": 105.6138892,
      "tags": {
        "bus": "yes",
        "highway": "bus_stop",
        "name": "Tạp hóa Phong Phú",
        "public_transport": "platform"
      }
    },
    {
      "type": "node",
      "id": 11919853626,
      "lat": 10.0774985,
      "lon": 105.7141724,
      "tags": {
        "bus": "yes",
        "highway": "bus_stop",
        "name": "Sân bay Cần Thơ",
        "public_transport": "platform"
      }
    },
    {
      "type": "node",
      "id": 11919853630,
      "lat": 10.0744764,
      "lon": 105.7189948,
      "tags": {
        "bus": "yes",
        "highway": "bus_stop",
        "name": "Qua cầu Rạch Cam",
        "public_transport": "platform"
      }
    },
    {
      "type": "node",
      "id": 11919853631,
      "lat": 10.0728861,
      "lon": 105.7214895,
      "tags": {
        "bus": "yes",
        "highway": "bus_stop",
        "name": "Cafe Võng Như Phúc",
        "public_transport": "platform"
      }
    },
    {
      "type": "node",
      "id": 11919853632,
      "lat": 10.0701406,
      "lon": 105.7259577,
      "tags": {
        "bus": "yes",
        "highway": "bus_stop",
        "name": "Cầu Rạch Chanh",
        "public_transport": "platform"
      }
    },
    {
      "type": "node",
      "id": 11919853633,
      "lat": 10.0670543,
      "lon": 105.7308809,
      "tags": {
        "bus": "yes",
        "highway": "bus_stop",
        "name": "Qua cầu Rạch Chanh",
        "public_transport": "platform"
      }
    },
    {
      "type": "node",
      "id": 11919853634,
      "lat": 10.0663806,
      "lon": 105.7319785,
      "tags": {
        "bus": "yes",
        "highway": "bus_stop",
        "name": "Đền thờ Vua Hùng",
        "public_transport": "platform"
      }
    },
    {
      "type": "node",
      "id": 11919853635,
      "lat": 10.0606126,
      "lon": 105.7399314,
      "tags": {
        "bus": "yes",
        "highway": "bus_stop",
        "name": "Qua cầu Bình Thủy 2",
        "public_transport": "platform"
      }
    },
    {
      "type": "node",
      "id": 11919853636,
      "lat": 10.0578225,
      "lon": 105.7435928,
      "tags": {
        "bus": "yes",
        "highway": "bus_stop",
        "name": "Qua cầu Rạch Súc",
        "public_transport": "platform"
      }
    },
    {
      "type": "node",
      "id": 11919853637,
      "lat": 10.0556205,
      "lon": 105.7468872,
      "tags": {
        "bus": "yes",
        "highway": "bus_stop",
        "name": "VLXD Nguyễn Phát Đạt",
        "public_transport": "platform"
      }
    },
    {
      "type": "node",
      "id": 11919853638,
      "lat": 10.0530452,
      "lon": 105.7507630,
      "tags": {
        "bus": "yes",
        "highway": "bus_stop",
        "name": "Vòng xoay Sân bay",
        "public_transport": "platform"
      }
    },
    {
      "type": "node",
      "id": 11919853639,
      "lat": 10.0502393,
      "lon": 105.7549967,
      "tags": {
        "bus": "yes",
        "highway": "bus_stop",
        "name": "Qua cầu Bà Bộ",
        "public_transport": "platform"
      }
    },
    {
      "type": "node",
      "id": 11919853640,
      "lat": 10.0490237,
      "lon": 105.7567846,
      "tags": {
        "bus": "yes",
        "highway": "bus_stop",
        "name": "Đối diện Cổng Quân đội",
        "public_transport": "platform"
      }
    },
    {
      "type": "node",
      "id": 11919853641,
      "lat": 10.0479954,
      "lon": 105.7583168,
      "tags": {
        "bus": "yes",
        "highway": "bus_stop",
        "public_transport": "platform"
      }
    },
    {
      "type": "node",
      "id": 11919853642,
      "lat": 10.0460371,
      "lon": 105.7612444,
      "tags": {
        "bus": "yes",
        "highway": "bus_stop",
        "public_transport": "platform"
      }
    },
    {
      "type": "node",
      "id": 11919853643,
      "lat": 10.0445624,
      "lon": 105.7635085,
      "tags": {
        "bus": "yes",
        "highway": "bus_stop",
        "name": "Lẩu dê Đức Quân",
        "public_transport": "platform"
      }
    },
    {
      "type": "node",
      "id": 11919860585,
      "lat": 10.0264631,
      "lon": 105.7577786,
      "tags": {
        "bus": "yes",
        "highway": "bus_stop",
        "name": "410A Nguyễn Văn Linh",
        "public_transport": "platform"
      }
    },
    {
      "type": "node",
      "id": 11919860586,
      "lat": 10.0281027,
      "lon": 105.7554539,
      "tags": {
        "bus": "yes",
        "highway": "bus_stop",
        "name": "Bệnh viện Đa khoa Trung ương Cần Thơ",
        "public_transport": "platform"
      }
    },
    {
      "type": "node",
      "id": 11919860587,
      "lat": 10.0298741,
      "lon": 105.7511040,
      "tags": {
        "bus": "yes",
        "highway": "bus_stop",
        "name": "Bệnh viện Quốc tế Phương Châu",
        "public_transport": "platform"
      }
    },
    {
      "type": "node",
      "id": 11919860588,
      "lat": 10.0272178,
      "lon": 105.7484395,
      "tags": {
        "bus": "yes",
        "highway": "bus_stop",
        "name": "Bida Thế Giới Mới",
        "public_transport": "platform"
      }
    },
    {
      "type": "node",
      "id": 11919860589,
      "lat": 10.0248487,
      "lon": 105.7460236,
      "tags": {
        "bus": "yes",
        "highway": "bus_stop",
        "name": "82A Nguyễn Văn Cừ",
        "public_transport": "platform"
      }
    },
    {
      "type": "node",
      "id": 11919860590,
      "lat": 10.0230219,
      "lon": 105.7441307,
      "tags": {
        "bus": "yes",
        "highway": "bus_stop",
        "name": "100 Nguyễn Văn Cừ",
        "public_transport": "platform"
      }
    },
    {
      "type": "node",
      "id": 11919860591,
      "lat": 10.0213458,
      "lon": 105.7424460,
      "tags": {
        "bus": "yes",
        "highway": "bus_stop",
        "name": "261A Nguyễn Văn Cừ",
        "public_transport": "platform"
      }
    },
    {
      "type": "node",
      "id": 11919860592,
      "lat": 10.0169482,
      "lon": 105.7377338,
      "tags": {
        "bus": "yes",
        "highway": "bus_stop",
        "name": "Đối diện Bệnh viện Nhi đồng Cần Thơ",
        "public_transport": "platform"
      }
    },
    {
      "type": "node",
      "id": 11919860593,
      "lat": 10.0153082,
      "lon": 105.7358088,
      "tags": {
        "bus": "yes",
        "highway": "bus_stop",
        "name": "439 Nguyễn Văn Cừ",
        "public_transport": "platform"
      }
    },
    {
      "type": "node",
      "id": 11919860594,
      "lat": 10.0138059,
      "lon": 105.7340671,
      "tags": {
        "bus": "yes",
        "highway": "bus_stop",
        "name": "Đối diện Trường Quốc tế Singapore Cần Thơ",
        "public_transport": "platform"
      }
    },
    {
      "type": "node",
      "id": 11919860595,
      "lat": 10.0125472,
      "lon": 105.7326206,
      "tags": {
        "bus": "yes",
        "highway": "bus_stop",
        "name": "Đại học FPT Cần Thơ",
        "public_transport": "platform"
      }
    },
    {
      "type": "node",
      "id": 11919860596,
      "lat": 10.0101820,
      "lon": 105.7298541,
      "tags": {
        "bus": "yes",
        "highway": "bus_stop",
        "name": "Học viện Chính trị Khu vực 4",
        "public_transport": "platform"
      }
    },
    {
      "type": "node",
      "id": 11919860597,
      "lat": 10.0091720,
      "lon": 105.7285950,
      "tags": {
        "bus": "yes",
        "highway": "bus_stop",
        "name": "Đối diện Kiểm toán Nhà nước Khu vực 5",
        "public_transport": "platform"
      }
    },
    {
      "type": "node",
      "id": 11919860598,
      "lat": 10.0071748,
      "lon": 105.7263421,
      "tags": {
        "bus": "yes",
        "highway": "bus_stop",
        "name": "Trường Chính trị Thành phố Cần Thơ",
        "public_transport": "platform"
      }
    },
    {
      "type": "node",
      "id": 11919860599,
      "lat": 10.0056907,
      "lon": 105.7243779,
      "tags": {
        "bus": "yes",
        "highway": "bus_stop",
        "name": "Trung tâm Quan trắc Tài nguyên và Môi trường Cần Thơ",
        "public_transport": "platform"
      }
    },
    {
      "type": "node",
      "id": 11919860600,
      "lat": 10.0049207,
      "lon": 105.7228915,
      "tags": {
        "bus": "yes",
        "highway": "bus_stop",
        "name": "Trung tâm Tần số Vô tuyến điện Khu vực 4",
        "public_transport": "platform"
      }
    },
    {
      "type": "node",
      "id": 11919860601,
      "lat": 10.0034187,
      "lon": 105.7204368,
      "tags": {
        "bus": "yes",
        "highway": "bus_stop",
        "name": "Cây xăng An Bình",
        "public_transport": "platform"
      }
    },
    {
      "type": "node",
      "id": 11919860602,
      "lat": 10.0014942,
      "lon": 105.7184010,
      "tags": {
        "bus": "yes",
        "highway": "bus_stop",
        "name": "Cafe Hoa Đô",
        "public_transport": "platform"
      }
    },
    {
      "type": "node",
      "id": 11919860603,
      "lat": 9.9994530,
      "lon": 105.7169584,
      "tags": {
        "bus": "yes",
        "highway": "bus_stop",
        "public_transport": "platform"
      }
    },
    {
      "type": "node",
      "id": 11919860604,
      "lat": 9.9982608,
      "lon": 105.7161531,
      "tags": {
        "bus": "yes",
        "highway": "bus_stop",
        "name": "Đối diện Cửa hàng Minh Huy",
        "public_transport": "platform"
      }
    },
    {
      "type": "node",
      "id": 11919860605,
      "lat": 9.9970429,
      "lon": 105.7153541,
      "tags": {
        "bus": "yes",
        "highway": "bus_stop",
        "name": "Đối diện Chợ Mỹ Khánh",
        "public_transport": "platform"
      }
    },
    {
      "type": "node",
      "id": 11919860606,
      "lat": 9.9934258,
      "lon": 105.7128678,
      "tags": {
        "bus": "yes",
        "highway": "bus_stop",
        "name": "Đối diện Cửa hàng Thị Thiện",
        "public_transport": "platform"
      }
    },
    {
      "type": "node",
      "id": 11919860607,
      "lat": 9.9905834,
      "lon": 105.7092021,
      "tags": {
        "bus": "yes",
        "highway": "bus_stop",
        "name": "Làng du lịch sinh thái Ông Đề",
        "public_transport": "platform"
      }
    },
    {
      "type": "node",
      "id": 11919860608,
      "lat": 9.9906233,
      "lon": 105.7068709,
      "tags": {
        "bus": "yes",
        "highway": "bus_stop",
        "name": "Khu du lịch sinh thái Mỹ Khánh",
        "public_transport": "platform"
      }
    },
    {
      "type": "node",
      "id": 11919860609,
      "lat": 9.9906613,
      "lon": 105.7045008,
      "tags": {
        "bus": "yes",
        "highway": "bus_stop",
        "name": "Đối diện Thiền viện Trúc Lâm Phương Nam",
        "public_transport": "platform"
      }
    },
    {
      "type": "node",
      "id": 11919860610,
      "lat": 9.9907774,
      "lon": 105.7013641,
      "tags": {
        "bus": "yes",
        "highway": "bus_stop",
        "name": "Qua cầu Rạch Kè 2",
        "public_transport": "platform"
      }
    },
    {
      "type": "node",
      "id": 11919860611,
      "lat": 9.9908748,
      "lon": 105.6980821,
      "tags": {
        "bus": "yes",
        "highway": "bus_stop",
        "public_transport": "platform"
      }
    },
    {
      "type": "node",
      "id": 11919860612,
      "lat": 9.9904058,
      "lon": 105.6953425,
      "tags": {
        "bus": "yes",
        "highway": "bus_stop",
        "name": "Cầu Vàm Sáng",
        "public_transport": "platform"
      }
    },
    {
      "type": "node",
      "id": 11919860613,
      "lat": 9.9900470,
      "lon": 105.6919732,
      "tags": {
        "bus": "yes",
        "highway": "bus_stop",
        "name": "Cafe Huỳnh Trân",
        "public_transport": "platform"
      }
    },
    {
      "type": "node",
      "id": 11919860614,
      "lat": 9.9888657,
      "lon": 105.6903762,
      "tags": {
        "bus": "yes",
        "highway": "bus_stop",
        "public_transport": "platform"
      }
    },
    {
      "type": "node",
      "id": 11919860615,
      "lat": 9.9876626,
      "lon": 105.6879145,
      "tags": {
        "bus": "yes",
        "highway": "bus_stop",
        "name": "Nhà thờ Tin Lành Phong Điền",
        "public_transport": "platform"
      }
    },
    {
      "type": "node",
      "id": 11919860616,
      "lat": 9.9879103,
      "lon": 105.6868627,
      "tags": {
        "bus": "yes",
        "highway": "bus_stop",
        "public_transport": "platform"
      }
    },
    {
      "type": "node",
      "id": 11919860617,
      "lat": 9.9888750,
      "lon": 105.6842493,
      "tags": {
        "bus": "yes",
        "highway": "bus_stop",
        "name": "Cầu Rạch Chuối",
        "public_transport": "platform"
      }
    },
    {
      "type": "node",
      "id": 11919860618,
      "lat": 9.9903290,
      "lon": 105.6813632,
      "tags": {
        "bus": "yes",
        "highway": "bus_stop",
        "name": "Nhà nghỉ Giáo Dương",
        "public_transport": "platform"
      }
    },
    {
      "type": "node",
      "id": 11919860619,
      "lat": 9.9912159,
      "lon": 105.6801046,
      "tags": {
        "bus": "yes",
        "highway": "bus_stop",
        "name": "Đối diện Cửa hàng Dương Ánh",
        "public_transport": "platform"
      }
    },
    {
      "type": "node",
      "id": 11919860620,
      "lat": 9.9927824,
      "lon": 105.6786545,
      "tags": {
        "bus": "yes",
        "highway": "bus_stop",
        "name": "199A Lộ Vòng Cung",
        "public_transport": "platform"
      }
    },
    {
      "type": "node",
      "id": 11919860621,
      "lat": 9.9954374,
      "lon": 105.6765807,
      "tags": {
        "bus": "yes",
        "highway": "bus_stop",
        "name": "Cầu Trà Niền",
        "public_transport": "platform"
      }
    },
    {
      "type": "node",
      "id": 11919860622,
      "lat": 9.9969457,
      "lon": 105.6731313,
      "tags": {
        "bus": "yes",
        "highway": "bus_stop",
        "name": "Qua cầu Trà Niền",
        "public_transport": "platform"
      }
    },
    {
      "type": "node",
      "id": 11919860623,
      "lat": 9.9960504,
      "lon": 105.6708437,
      "tags": {
        "bus": "yes",
        "highway": "bus_stop",
        "name": "Đình Nhơn Ái",
        "public_transport": "platform"
      }
    },
    {
      "type": "node",
      "id": 11919860624,
      "lat": 9.9956100,
      "lon": 105.6695214,
      "tags": {
        "bus": "yes",
        "highway": "bus_stop",
        "name": "Hưng Phong Tự",
        "public_transport": "platform"
      }
    },
    {
      "type": "node",
      "id": 11919860626,
      "lat": 9.9971191,
      "lon": 105.6684688,
      "tags": {
        "bus": "yes",
        "highway": "bus_stop",
        "name": "Chợ Phong Điền",
        "public_transport": "platform"
      }
    },
    {
      "type": "node",
      "id": 11919860627,
      "lat": 9.9982091,
      "lon": 105.6673015,
      "tags": {
        "bus": "yes",
        "highway": "bus_stop",
        "name": "Nhà nghỉ Huỳnh Thôn",
        "public_transport": "platform"
      }
    },
    {
      "type": "node",
      "id": 11919860628,
      "lat": 9.9992675,
      "lon": 105.6660131,
      "tags": {
        "bus": "yes",
        "highway": "bus_stop",
        "name": "UBND Thị trấn Phong Điền",
        "public_transport": "platform"
      }
    },
    {
      "type": "node",
      "id": 11919860629,
      "lat": 10.0002384,
      "lon": 105.6648636,
      "tags": {
        "bus": "yes",
        "highway": "bus_stop",
        "name": "Công viện Phan Văn Trị",
        "public_transport": "platform"
      }
    },
    {
      "type": "node",
      "id": 11920077192,
      "lat": 10.0289897,
      "lon": 105.7537571,
      "tags": {
        "bus": "yes",
        "highway": "bus_stop",
        "name": "317 Nguyễn Văn Linh",
        "public_transport": "platform"
      }
    },
    {
      "type": "node",
      "id": 11920077193,
      "lat": 10.0283523,
      "lon": 105.7546165,
      "tags": {
        "bus": "yes",
        "highway": "bus_stop",
        "name": "Bệnh viện Đa khoa Trung ương Cần Thơ",
        "public_transport": "platform"
      }
    },
    {
      "type": "node",
      "id": 11920077194,
      "lat": 10.0264326,
      "lon": 105.7574365,
      "tags": {
        "bus": "yes",
        "highway": "bus_stop",
        "name": "329 Nguyễn Văn Linh",
        "public_transport": "platform"
      }
    },
    {
      "type": "node",
      "id": 11932189125,
      "lat": 10.1169070,
      "lon": 105.6106938,
      "tags": {
        "bus": "yes",
        "highway": "bus_stop",
        "public_transport": "platform"
      }
    },
    {
      "type": "node",
      "id": 11932189126,
      "lat": 10.1222422,
      "lon": 105.6050734,
      "tags": {
        "bus": "yes",
        "highway": "bus_stop",
        "name": "Trường THCS Thới Hòa",
        "public_transport": "platform"
      }
    },
    {
      "type": "node",
      "id": 11932189127,
      "lat": 10.1240301,
      "lon": 105.6031653,
      "tags": {
        "bus": "yes",
        "highway": "bus_stop",
        "name": "Qua trường THCS Thới Hòa",
        "public_transport": "platform"
      }
    },
    {
      "type": "node",
      "id": 11932189128,
      "lat": 10.1274638,
      "lon": 105.5995451,
      "tags": {
        "bus": "yes",
        "highway": "bus_stop",
        "public_transport": "platform"
      }
    },
    {
      "type": "node",
      "id": 11934852517,
      "lat": 10.1131976,
      "lon": 105.6212605,
      "tags": {
        "bus": "yes",
        "highway": "bus_stop",
        "name": "179-181 Đường 26/3",
        "public_transport": "platform"
      }
    },
    {
      "type": "node",
      "id": 11934852518,
      "lat": 10.1120386,
      "lon": 105.6207496,
      "tags": {
        "bus": "yes",
        "highway": "bus_stop",
        "name": "135-137-139 Đường 26/3",
        "public_transport": "platform"
      }
    },
    {
      "type": "node",
      "id": 11934852519,
      "lat": 10.1107834,
      "lon": 105.6202032,
      "tags": {
        "bus": "yes",
        "highway": "bus_stop",
        "name": "Trường THCS Châu Văn Liêm",
        "public_transport": "platform"
      }
    },
    {
      "type": "node",
      "id": 12102682256,
      "lat": 10.0011209,
      "lon": 105.6638543,
      "tags": {
        "bus": "yes",
        "highway": "bus_stop",
        "name": "Huyện ủy Phong Điền",
        "public_transport": "platform"
      }
    },
    {
      "type": "node",
      "id": 12102682257,
      "lat": 10.0022083,
      "lon": 105.6625315,
      "tags": {
        "bus": "yes",
        "highway": "bus_stop",
        "public_transport": "platform"
      }
    },
    {
      "type": "node",
      "id": 12102682258,
      "lat": 10.0020652,
      "lon": 105.6606543,
      "tags": {
        "bus": "yes",
        "highway": "bus_stop",
        "name": "Trung tâm Y tế Phong Điền",
        "public_transport": "platform"
      }
    },
    {
      "type": "node",
      "id": 12102682259,
      "lat": 10.0021670,
      "lon": 105.6597132,
      "tags": {
        "bus": "yes",
        "highway": "bus_stop",
        "name": "Trung tâm Y tế Phong Điền",
        "public_transport": "platform"
      }
    },
    {
      "type": "node",
      "id": 12102682260,
      "lat": 10.0041060,
      "lon": 105.6577416,
      "tags": {
        "bus": "yes",
        "highway": "bus_stop",
        "public_transport": "platform"
      }
    },
    {
      "type": "node",
      "id": 12102682261,
      "lat": 10.0074221,
      "lon": 105.6545502,
      "tags": {
        "bus": "yes",
        "highway": "bus_stop",
        "name": "Đối diện Cây xăng Vạn Nguyên",
        "public_transport": "platform"
      }
    },
    {
      "type": "node",
      "id": 12102682262,
      "lat": 10.0106279,
      "lon": 105.6521271,
      "tags": {
        "bus": "yes",
        "highway": "bus_stop",
        "public_transport": "platform"
      }
    },
    {
      "type": "node",
      "id": 12102682263,
      "lat": 10.0145242,
      "lon": 105.6504590,
      "tags": {
        "bus": "yes",
        "highway": "bus_stop",
        "name": "Trường THCS Tân Thới",
        "public_transport": "platform"
      }
    },
    {
      "type": "node",
      "id": 12102682264,
      "lat": 10.0157700,
      "lon": 105.6498236,
      "tags": {
        "bus": "yes",
        "highway": "bus_stop",
        "public_transport": "platform"
      }
    },
    {
      "type": "node",
      "id": 12102682265,
      "lat": 10.0179368,
      "lon": 105.6499389,
      "tags": {
        "bus": "yes",
        "highway": "bus_stop",
        "public_transport": "platform"
      }
    },
    {
      "type": "node",
      "id": 12102682266,
      "lat": 10.0219489,
      "lon": 105.6506579,
      "tags": {
        "bus": "yes",
        "highway": "bus_stop",
        "name": "Gần cầu Rạch Miễu",
        "public_transport": "platform"
      }
    },
    {
      "type": "node",
      "id": 12102682267,
      "lat": 10.0241699,
      "lon": 105.6512998,
      "tags": {
        "bus": "yes",
        "highway": "bus_stop",
        "name": "Qua cầu Rạch Miễu",
        "public_transport": "platform"
      }
    },
    {
      "type": "node",
      "id": 12102682268,
      "lat": 10.0255562,
      "lon": 105.6516530,
      "tags": {
        "bus": "yes",
        "highway": "bus_stop",
        "name": "Trường Tiểu học Lộ Vòng Cung",
        "public_transport": "platform"
      }
    },
    {
      "type": "node",
      "id": 12102716106,
      "lat": 10.0272346,
      "lon": 105.6517990,
      "tags": {
        "bus": "yes",
        "highway": "bus_stop",
        "public_transport": "platform"
      }
    },
    {
      "type": "node",
      "id": 12102716107,
      "lat": 10.0310993,
      "lon": 105.6504911,
      "tags": {
        "bus": "yes",
        "highway": "bus_stop",
        "public_transport": "platform"
      }
    },
    {
      "type": "node",
      "id": 12102716108,
      "lat": 10.0333288,
      "lon": 105.6483479,
      "tags": {
        "bus": "yes",
        "highway": "bus_stop",
        "public_transport": "platform"
      }
    },
    {
      "type": "node",
      "id": 12102716109,
      "lat": 10.0364803,
      "lon": 105.6446879,
      "tags": {
        "bus": "yes",
        "highway": "bus_stop",
        "name": "Cửa hàng Lâm Nhi",
        "public_transport": "platform"
      }
    },
    {
      "type": "node",
      "id": 12102716110,
      "lat": 10.0398142,
      "lon": 105.6443460,
      "tags": {
        "bus": "yes",
        "highway": "bus_stop",
        "name": "Tạp hóa Ngọc Lan",
        "public_transport": "platform"
      }
    },
    {
      "type": "node",
      "id": 12102716111,
      "lat": 10.0430548,
      "lon": 105.6444564,
      "tags": {
        "bus": "yes",
        "highway": "bus_stop",
        "public_transport": "platform"
      }
    },
    {
      "type": "node",
      "id": 12102716112,
      "lat": 10.0454184,
      "lon": 105.6441369,
      "tags": {
        "bus": "yes",
        "highway": "bus_stop",
        "name": "Nhà văn hóa Ấp Tân Lợi",
        "public_transport": "platform"
      }
    },
    {
      "type": "node",
      "id": 12102716113,
      "lat": 10.0518619,
      "lon": 105.6447865,
      "tags": {
        "bus": "yes",
        "highway": "bus_stop",
        "public_transport": "platform"
      }
    },
    {
      "type": "node",
      "id": 12102716114,
      "lat": 10.0542076,
      "lon": 105.6473740,
      "tags": {
        "bus": "yes",
        "highway": "bus_stop",
        "name": "Nhà văn hóa Phường Trường Lạc",
        "public_transport": "platform"
      }
    },
    {
      "type": "node",
      "id": 12102716115,
      "lat": 10.0563175,
      "lon": 105.6468021,
      "tags": {
        "bus": "yes",
        "highway": "bus_stop",
        "name": "Đối diện Nhà thuốc Huỳnh Thi 2",
        "public_transport": "platform"
      }
    },
    {
      "type": "node",
      "id": 12102716116,
      "lat": 10.0595139,
      "lon": 105.6464190,
      "tags": {
        "bus": "yes",
        "highway": "bus_stop",
        "name": "Cây xăng Hùng Thịnh",
        "public_transport": "platform"
      }
    },
    {
      "type": "node",
      "id": 12102716117,
      "lat": 10.0622268,
      "lon": 105.6462237,
      "tags": {
        "bus": "yes",
        "highway": "bus_stop",
        "name": "Trạm y tế Phường Trường Lạc",
        "public_transport": "platform"
      }
    },
    {
      "type": "node",
      "id": 12102716118,
      "lat": 10.0656775,
      "lon": 105.6478897,
      "tags": {
        "bus": "yes",
        "highway": "bus_stop",
        "public_transport": "platform"
      }
    },
    {
      "type": "node",
      "id": 12102716119,
      "lat": 10.0682526,
      "lon": 105.6491668,
      "tags": {
        "bus": "yes",
        "highway": "bus_stop",
        "public_transport": "platform"
      }
    },
    {
      "type": "node",
      "id": 12102716120,
      "lat": 10.0719978,
      "lon": 105.6496667,
      "tags": {
        "bus": "yes",
        "highway": "bus_stop",
        "public_transport": "platform"
      }
    },
    {
      "type": "node",
      "id": 12102716121,
      "lat": 10.0744889,
      "lon": 105.6498107,
      "tags": {
        "bus": "yes",
        "highway": "bus_stop",
        "public_transport": "platform"
      }
    },
    {
      "type": "node",
      "id": 12102716122,
      "lat": 10.0771221,
      "lon": 105.6517675,
      "tags": {
        "bus": "yes",
        "highway": "bus_stop",
        "public_transport": "platform"
      }
    },
    {
      "type": "node",
      "id": 12102716123,
      "lat": 10.0806452,
      "lon": 105.6537847,
      "tags": {
        "bus": "yes",
        "highway": "bus_stop",
        "public_transport": "platform"
      }
    },
    {
      "type": "node",
      "id": 12102716124,
      "lat": 10.0845761,
      "lon": 105.6539706,
      "tags": {
        "bus": "yes",
        "highway": "bus_stop",
        "public_transport": "platform"
      }
    },
    {
      "type": "node",
      "id": 12102716125,
      "lat": 10.0874978,
      "lon": 105.6553263,
      "tags": {
        "bus": "yes",
        "highway": "bus_stop",
        "public_transport": "platform"
      }
    },
    {
      "type": "node",
      "id": 12102716126,
      "lat": 10.0883052,
      "lon": 105.6563344,
      "tags": {
        "bus": "yes",
        "highway": "bus_stop",
        "public_transport": "platform"
      }
    },
    {
      "type": "node",
      "id": 12102716127,
      "lat": 10.0906074,
      "lon": 105.6574635,
      "tags": {
        "bus": "yes",
        "highway": "bus_stop",
        "public_transport": "platform"
      }
    },
    {
      "type": "node",
      "id": 12102716128,
      "lat": 10.0932553,
      "lon": 105.6593780,
      "tags": {
        "bus": "yes",
        "highway": "bus_stop",
        "public_transport": "platform"
      }
    },
    {
      "type": "node",
      "id": 12102716129,
      "lat": 10.0957749,
      "lon": 105.6626973,
      "tags": {
        "bus": "yes",
        "highway": "bus_stop",
        "public_transport": "platform"
      }
    },
    {
      "type": "node",
      "id": 12102716130,
      "lat": 10.0983383,
      "lon": 105.6645262,
      "tags": {
        "bus": "yes",
        "highway": "bus_stop",
        "name": "Đối diện Trường Cao đẳng Cơ điện và Nông nghiệp Nam Bộ",
        "public_transport": "platform"
      }
    },
    {
      "type": "node",
      "id": 12102716131,
      "lat": 10.1013167,
      "lon": 105.6662855,
      "tags": {
        "bus": "yes",
        "highway": "bus_stop",
        "public_transport": "platform"
      }
    },
    {
      "type": "node",
      "id": 12102716132,
      "lat": 10.1036427,
      "lon": 105.6676041,
      "tags": {
        "bus": "yes",
        "highway": "bus_stop",
        "public_transport": "platform"
      }
    },
    {
      "type": "node",
      "id": 12102716133,
      "lat": 10.1147407,
      "lon": 105.6386158,
      "tags": {
        "bus": "yes",
        "highway": "bus_stop",
        "public_transport": "platform"
      }
    },
    {
      "type": "node",
      "id": 12102716134,
      "lat": 10.1151803,
      "lon": 105.6371949,
      "tags": {
        "bus": "yes",
        "highway": "bus_stop",
        "name": "Trường THPT Lưu Hữu Phước",
        "public_transport": "platform"
      }
    },
    {
      "type": "node",
      "id": 12102716135,
      "lat": 10.1162475,
      "lon": 105.6335623,
      "tags": {
        "bus": "yes",
        "highway": "bus_stop",
        "public_transport": "platform"
      }
    },
    {
      "type": "node",
      "id": 12102716136,
      "lat": 10.1170626,
      "lon": 105.6308713,
      "tags": {
        "bus": "yes",
        "highway": "bus_stop",
        "public_transport": "platform"
      }
    },
    {
      "type": "node",
      "id": 12102716137,
      "lat": 10.1182189,
      "lon": 105.6272632,
      "tags": {
        "bus": "yes",
        "highway": "bus_stop",
        "name": "Trường THPT Lương Đình Của",
        "public_transport": "platform"
      }
    },
    {
      "type": "node",
      "id": 12102716138,
      "lat": 10.1165700,
      "lon": 105.6229000,
      "tags": {
        "bus": "yes",
        "highway": "bus_stop",
        "public_transport": "platform"
      }
    },
    {
      "type": "node",
      "id": 12102716139,
      "lat": 10.1150967,
      "lon": 105.6215627,
      "tags": {
        "bus": "yes",
        "highway": "bus_stop",
        "public_transport": "platform"
      }
    },
    {
      "type": "node",
      "id": 12795211219,
      "lat": 10.1292824,
      "lon": 105.5976839,
      "tags": {
        "bus": "yes",
        "highway": "bus_stop",
        "name": "Bến xe buýt Ô Môn mới",
        "public_transport": "platform"
      }
    },
    {
      "type": "node",
      "id": 12795211250,
      "lat": 10.0415989,
      "lon": 105.7630103,
      "tags": {
        "bus": "yes",
        "highway": "bus_stop",
        "name": "138C Nguyễn Văn Cừ",
        "public_transport": "platform"
      }
    },
    {
      "type": "node",
      "id": 12795211251,
      "lat": 10.0389312,
      "lon": 105.7603022,
      "tags": {
        "bus": "yes",
        "highway": "bus_stop",
        "name": "163 Nguyễn Văn Cừ",
        "public_transport": "platform"
      }
    },
    {
      "type": "node",
      "id": 12795211252,
      "lat": 10.0365580,
      "lon": 105.7578821,
      "tags": {
        "bus": "yes",
        "highway": "bus_stop",
        "name": "Trung tâm Nội thất Sài Gòn",
        "public_transport": "platform"
      }
    },
    {
      "type": "node",
      "id": 12795211253,
      "lat": 10.0356709,
      "lon": 105.7569814,
      "tags": {
        "bus": "yes",
        "highway": "bus_stop",
        "name": "161 Nguyễn Văn Cừ",
        "public_transport": "platform"
      }
    },
    {
      "type": "node",
      "id": 12795211254,
      "lat": 10.0325273,
      "lon": 105.7538198,
      "tags": {
        "bus": "yes",
        "highway": "bus_stop",
        "name": "Trường Đại học Y dược",
        "public_transport": "platform"
      }
    },
    {
      "type": "relation",
      "id": 17924282,
      "members": [
        {
          "type": "node",
          "ref": 11919860629,
          "role": "platform"
        },
        {
          "type": "node",
          "ref": 12102682256,
          "role": "platform"
        },
        {
          "type": "node",
          "ref": 12102682257,
          "role": "platform"
        },
        {
          "type": "node",
          "ref": 12102682258,
          "role": "platform"
        },
        {
          "type": "node",
          "ref": 12102682259,
          "role": "platform"
        },
        {
          "type": "node",
          "ref": 12102682260,
          "role": "platform"
        },
        {
          "type": "node",
          "ref": 12102682261,
          "role": "platform"
        },
        {
          "type": "node",
          "ref": 12102682262,
          "role": "platform"
        },
        {
          "type": "node",
          "ref": 12102682263,
          "role": "platform"
        },
        {
          "type": "node",
          "ref": 12102682264,
          "role": "platform"
        },
        {
          "type": "node",
          "ref": 12102682265,
          "role": "platform"
        },
        {
          "type": "node",
          "ref": 12102682266,
          "role": "platform"
        },
        {
          "type": "node",
          "ref": 12102682267,
          "role": "platform"
        },
        {
          "type": "node",
          "ref": 12102682268,
          "role": "platform"
        },
        {
          "type": "node",
          "ref": 12102716106,
          "role": "platform"
        },
        {
          "type": "node",
          "ref": 12102716107,
          "role": "platform"
        },
        {
          "type": "node",
          "ref": 12102716108,
          "role": "platform"
        },
        {
          "type": "node",
          "ref": 12102716109,
          "role": "platform"
        },
        {
          "type": "node",
          "ref": 12102716110,
          "role": "platform"
        },
        {
          "type": "node",
          "ref": 12102716111,
          "role": "platform"
        },
        {
          "type": "node",
          "ref": 12102716112,
          "role": "platform"
        },
        {
          "type": "node",
          "ref": 12102716113,
          "role": "platform"
        },
        {
          "type": "node",
          "ref": 12102716114,
          "role": "platform"
        },
        {
          "type": "node",
          "ref": 12102716115,
          "role": "platform"
        },
        {
          "type": "node",
          "ref": 12102716116,
          "role": "platform"
        },
        {
          "type": "node",
          "ref": 12102716117,
          "role": "platform"
        },
        {
          "type": "node",
          "ref": 12102716118,
          "role": "platform"
        },
        {
          "type": "node",
          "ref": 12102716119,
          "role": "platform"
        },
        {
          "type": "node",
          "ref": 12102716120,
          "role": "platform"
        },
        {
          "type": "node",
          "ref": 12102716121,
          "role": "platform"
        },
        {
          "type": "node",
          "ref": 12102716122,
          "role": "platform"
        },
        {
          "type": "node",
          "ref": 12102716123,
          "role": "platform"
        },
        {
          "type": "node",
          "ref": 12102716124,
          "role": "platform"
        },
        {
          "type": "node",
          "ref": 12102716125,
          "role": "platform"
        },
        {
          "type": "node",
          "ref": 12102716126,
          "role": "platform"
        },
        {
          "type": "node",
          "ref": 12102716127,
          "role": "platform"
        },
        {
          "type": "node",
          "ref": 12102716128,
          "role": "platform"
        },
        {
          "type": "node",
          "ref": 12102716129,
          "role": "platform"
        },
        {
          "type": "node",
          "ref": 12102716130,
          "role": "platform"
        },
        {
          "type": "node",
          "ref": 12102716131,
          "role": "platform"
        },
        {
          "type": "node",
          "ref": 12102716132,
          "role": "platform"
        },
        {
          "type": "node",
          "ref": 11917454669,
          "role": "platform"
        },
        {
          "type": "node",
          "ref": 11917454670,
          "role": "platform"
        },
        {
          "type": "node",
          "ref": 11917454671,
          "role": "platform"
        },
        {
          "type": "node",
          "ref": 11917454672,
          "role": "platform"
        },
        {
          "type": "node",
          "ref": 11917454673,
          "role": "platform"
        },
        {
          "type": "node",
          "ref": 11917454674,
          "role": "platform"
        },
        {
          "type": "node",
          "ref": 11917454675,
          "role": "platform"
        },
        {
          "type": "node",
          "ref": 12102716133,
          "role": "platform"
        },
        {
          "type": "node",
          "ref": 12102716134,
          "role": "platform"
        },
        {
          "type": "node",
          "ref": 12102716135,
          "role": "platform"
        },
        {
          "type": "node",
          "ref": 12102716136,
          "role": "platform"
        },
        {
          "type": "node",
          "ref": 12102716137,
          "role": "platform"
        },
        {
          "type": "node",
          "ref": 12102716138,
          "role": "platform"
        },
        {
          "type": "node",
          "ref": 12102716139,
          "role": "platform"
        },
        {
          "type": "node",
          "ref": 11934852517,
          "role": "platform"
        },
        {
          "type": "node",
          "ref": 11934852518,
          "role": "platform"
        },
        {
          "type": "node",
          "ref": 11934852519,
          "role": "platform"
        },
        {
          "type": "node",
          "ref": 11919853626,
          "role": "platform_entry_only"
        },
        {
          "type": "node",
          "ref": 11919853630,
          "role": "platform"
        },
        {
          "type": "node",
          "ref": 11919853631,
          "role": "platform"
        },
        {
          "type": "node",
          "ref": 11919853632,
          "role": "platform"
        },
        {
          "type": "node",
          "ref": 11919853633,
          "role": "platform"
        },
        {
          "type": "node",
          "ref": 11919853634,
          "role": "platform"
        },
        {
          "type": "node",
          "ref": 11919853635,
          "role": "platform"
        },
        {
          "type": "node",
          "ref": 11919853636,
          "role": "platform"
        },
        {
          "type": "node",
          "ref": 11919853637,
          "role": "platform"
        },
        {
          "type": "node",
          "ref": 11919853638,
          "role": "platform"
        },
        {
          "type": "node",
          "ref": 11919853639,
          "role": "platform"
        },
        {
          "type": "node",
          "ref": 11919853640,
          "role": "platform"
        },
        {
          "type": "node",
          "ref": 11919853641,
          "role": "platform"
        },
        {
          "type": "node",
          "ref": 11919853642,
          "role": "platform"
        },
        {
          "type": "node",
          "ref": 11919853643,
          "role": "platform"
        },
        {
          "type": "node",
          "ref": 12795211250,
          "role": "platform"
        },
        {
          "type": "node",
          "ref": 5177435692,
          "role": "platform"
        },
        {
          "type": "node",
          "ref": 12795211251,
          "role": "platform"
        },
        {
          "type": "node",
          "ref": 12795211252,
          "role": "platform"
        },
        {
          "type": "node",
          "ref": 12795211253,
          "role": "platform"
        },
        {
          "type": "node",
          "ref": 12795211254,
          "role": "platform"
        },
        {
          "type": "node",
          "ref": 11920077192,
          "role": "platform"
        },
        {
          "type": "node",
          "ref": 11920077193,
          "role": "platform"
        },
        {
          "type": "node",
          "ref": 11920077194,
          "role": "platform"
        },
        {
          "type": "node",
          "ref": 11919860585,
          "role": "platform"
        },
        {
          "type": "node",
          "ref": 11919860586,
          "role": "platform"
        },
        {
          "type": "node",
          "ref": 5177699273,
          "role": "platform"
        },
        {
          "type": "node",
          "ref": 11919860587,
          "role": "platform"
        },
        {
          "type": "node",
          "ref": 11919860588,
          "role": "platform"
        },
        {
          "type": "node",
          "ref": 11919860589,
          "role": "platform"
        },
        {
          "type": "node",
          "ref": 11919860590,
          "role": "platform"
        },
        {
          "type": "node",
          "ref": 11919860591,
          "role": "platform"
        },
        {
          "type": "node",
          "ref": 11919860592,
          "role": "platform"
        },
        {
          "type": "node",
          "ref": 11919860593,
          "role": "platform"
        },
        {
          "type": "node",
          "ref": 11919860594,
          "role": "platform"
        },
        {
          "type": "node",
          "ref": 11919860595,
          "role": "platform"
        },
        {
          "type": "node",
          "ref": 11919860596,
          "role": "platform"
        },
        {
          "type": "node",
          "ref": 11919860597,
          "role": "platform"
        },
        {
          "type": "node",
          "ref": 11919860598,
          "role": "platform"
        },
        {
          "type": "node",
          "ref": 11919860599,
          "role": "platform"
        },
        {
          "type": "node",
          "ref": 11919860600,
          "role": "platform"
        },
        {
          "type": "node",
          "ref": 11919860601,
          "role": "platform"
        },
        {
          "type": "node",
          "ref": 11919860602,
          "role": "platform"
        },
        {
          "type": "node",
          "ref": 11919860603,
          "role": "platform"
        },
        {
          "type": "node",
          "ref": 11919860604,
          "role": "platform"
        },
        {
          "type": "node",
          "ref": 11919860605,
          "role": "platform"
        },
        {
          "type": "node",
          "ref": 11919860606,
          "role": "platform"
        },
        {
          "type": "node",
          "ref": 11919860607,
          "role": "platform"
        },
        {
          "type": "node",
          "ref": 11919860608,
          "role": "platform"
        },
        {
          "type": "node",
          "ref": 11919860609,
          "role": "platform"
        },
        {
          "type": "node",
          "ref": 11919860610,
          "role": "platform"
        },
        {
          "type": "node",
          "ref": 11919860611,
          "role": "platform"
        },
        {
          "type": "node",
          "ref": 11919860612,
          "role": "platform"
        },
        {
          "type": "node",
          "ref": 11919860613,
          "role": "platform"
        },
        {
          "type": "node",
          "ref": 11919860614,
          "role": "platform"
        },
        {
          "type": "node",
          "ref": 11919860615,
          "role": "platform"
        },
        {
          "type": "node",
          "ref": 11919860616,
          "role": "platform"
        },
        {
          "type": "node",
          "ref": 11919860617,
          "role": "platform"
        },
        {
          "type": "node",
          "ref": 11919860618,
          "role": "platform"
        },
        {
          "type": "node",
          "ref": 11919860619,
          "role": "platform"
        },
        {
          "type": "node",
          "ref": 11919860620,
          "role": "platform"
        },
        {
          "type": "node",
          "ref": 11919860621,
          "role": "platform"
        },
        {
          "type": "node",
          "ref": 11919860622,
          "role": "platform"
        },
        {
          "type": "node",
          "ref": 11919860623,
          "role": "platform"
        },
        {
          "type": "node",
          "ref": 11919860624,
          "role": "platform"
        },
        {
          "type": "node",
          "ref": 11919860626,
          "role": "platform"
        },
        {
          "type": "node",
          "ref": 11919860627,
          "role": "platform"
        },
        {
          "type": "node",
          "ref": 11919860628,
          "role": "platform"
        },
        {
          "type": "way",
          "ref": 392595559,
          "role": ""
        },
        {
          "type": "way",
          "ref": 805830598,
          "role": ""
        },
        {
          "type": "way",
          "ref": 805830600,
          "role": ""
        },
        {
          "type": "way",
          "ref": 805816744,
          "role": ""
        },
        {
          "type": "way",
          "ref": 805816746,
          "role": ""
        },
        {
          "type": "way",
          "ref": 543118017,
          "role": ""
        },
        {
          "type": "way",
          "ref": 543118016,
          "role": ""
        },
        {
          "type": "way",
          "ref": 392595552,
          "role": ""
        },
        {
          "type": "way",
          "ref": 790292928,
          "role": ""
        },
        {
          "type": "way",
          "ref": 1284876482,
          "role": ""
        },
        {
          "type": "way",
          "ref": 790292932,
          "role": ""
        },
        {
          "type": "way",
          "ref": 790292937,
          "role": ""
        },
        {
          "type": "way",
          "ref": 790292936,
          "role": ""
        },
        {
          "type": "way",
          "ref": 1192458701,
          "role": ""
        },
        {
          "type": "way",
          "ref": 565256409,
          "role": ""
        },
        {
          "type": "way",
          "ref": 166192597,
          "role": ""
        },
        {
          "type": "way",
          "ref": 746549046,
          "role": ""
        },
        {
          "type": "way",
          "ref": 166107156,
          "role": ""
        },
        {
          "type": "way",
          "ref": 739485466,
          "role": ""
        },
        {
          "type": "way",
          "ref": 565592733,
          "role": ""
        },
        {
          "type": "way",
          "ref": 1382043337,
          "role": ""
        },
        {
          "type": "way",
          "ref": 952995130,
          "role": ""
        },
        {
          "type": "way",
          "ref": 952995129,
          "role": ""
        },
        {
          "type": "way",
          "ref": 935815858,
          "role": ""
        },
        {
          "type": "way",
          "ref": 935815859,
          "role": ""
        },
        {
          "type": "way",
          "ref": 565592734,
          "role": ""
        },
        {
          "type": "way",
          "ref": 724145928,
          "role": ""
        },
        {
          "type": "way",
          "ref": 344044663,
          "role": ""
        },
        {
          "type": "way",
          "ref": 168107517,
          "role": ""
        },
        {
          "type": "way",
          "ref": 1125943042,
          "role": ""
        },
        {
          "type": "way",
          "ref": 1125943043,
          "role": ""
        },
        {
          "type": "way",
          "ref": 724145929,
          "role": ""
        },
        {
          "type": "way",
          "ref": 1192263645,
          "role": ""
        },
        {
          "type": "way",
          "ref": 1284876500,
          "role": ""
        },
        {
          "type": "way",
          "ref": 1036180956,
          "role": ""
        },
        {
          "type": "way",
          "ref": 869101697,
          "role": ""
        },
        {
          "type": "way",
          "ref": 1036187603,
          "role": ""
        },
        {
          "type": "way",
          "ref": 1217715984,
          "role": ""
        },
        {
          "type": "way",
          "ref": 724145965,
          "role": ""
        },
        {
          "type": "way",
          "ref": 1284876503,
          "role": ""
        },
        {
          "type": "way",
          "ref": 1382043333,
          "role": ""
        },
        {
          "type": "way",
          "ref": 724145934,
          "role": ""
        },
        {
          "type": "way",
          "ref": 1306864006,
          "role": ""
        },
        {
          "type": "way",
          "ref": 1284876505,
          "role": ""
        },
        {
          "type": "way",
          "ref": 724145939,
          "role": ""
        },
        {
          "type": "way",
          "ref": 556964518,
          "role": ""
        },
        {
          "type": "way",
          "ref": 168459462,
          "role": ""
        },
        {
          "type": "way",
          "ref": 1306864012,
          "role": ""
        },
        {
          "type": "way",
          "ref": 1295553391,
          "role": ""
        },
        {
          "type": "way",
          "ref": 168459459,
          "role": ""
        },
        {
          "type": "way",
          "ref": 168459456,
          "role": ""
        },
        {
          "type": "way",
          "ref": 168459457,
          "role": ""
        },
        {
          "type": "way",
          "ref": 168459461,
          "role": ""
        },
        {
          "type": "way",
          "ref": 168459458,
          "role": ""
        },
        {
          "type": "way",
          "ref": 168459464,
          "role": ""
        },
        {
          "type": "way",
          "ref": 168459460,
          "role": ""
        },
        {
          "type": "way",
          "ref": 136481518,
          "role": ""
        },
        {
          "type": "way",
          "ref": 1273311892,
          "role": ""
        },
        {
          "type": "way",
          "ref": 1306889721,
          "role": ""
        },
        {
          "type": "way",
          "ref": 224469563,
          "role": ""
        },
        {
          "type": "way",
          "ref": 1273311893,
          "role": ""
        },
        {
          "type": "way",
          "ref": 724169503,
          "role": ""
        },
        {
          "type": "way",
          "ref": 803144664,
          "role": ""
        },
        {
          "type": "way",
          "ref": 724169502,
          "role": ""
        },
        {
          "type": "way",
          "ref": 1338832335,
          "role": ""
        },
        {
          "type": "way",
          "ref": 724169491,
          "role": ""
        },
        {
          "type": "way",
          "ref": 1306864010,
          "role": ""
        },
        {
          "type": "way",
          "ref": 724169492,
          "role": ""
        },
        {
          "type": "way",
          "ref": 1284590370,
          "role": ""
        },
        {
          "type": "way",
          "ref": 149100179,
          "role": ""
        },
        {
          "type": "way",
          "ref": 1019088033,
          "role": ""
        },
        {
          "type": "way",
          "ref": 566023219,
          "role": ""
        },
        {
          "type": "way",
          "ref": 566023221,
          "role": ""
        },
        {
          "type": "way",
          "ref": 1192262379,
          "role": ""
        },
        {
          "type": "way",
          "ref": 165790738,
          "role": ""
        },
        {
          "type": "way",
          "ref": 1192013272,
          "role": ""
        },
        {
          "type": "way",
          "ref": 166670651,
          "role": ""
        },
        {
          "type": "way",
          "ref": 166670650,
          "role": ""
        },
        {
          "type": "way",
          "ref": 790299449,
          "role": ""
        },
        {
          "type": "way",
          "ref": 166670853,
          "role": ""
        },
        {
          "type": "way",
          "ref": 166670649,
          "role": ""
        },
        {
          "type": "way",
          "ref": 1192013273,
          "role": ""
        },
        {
          "type": "way",
          "ref": 166666130,
          "role": ""
        },
        {
          "type": "way",
          "ref": 1382043343,
          "role": ""
        },
        {
          "type": "way",
          "ref": 739485466,
          "role": ""
        },
        {
          "type": "node",
          "ref": 11917454682,
          "role": "platform"
        },
        {
          "type": "node",
          "ref": 11932189125,
          "role": "platform"
        },
        {
          "type": "node",
          "ref": 11932189126,
          "role": "platform"
        },
        {
          "type": "node",
          "ref": 11932189127,
          "role": "platform"
        },
        {
          "type": "node",
          "ref": 11932189128,
          "role": "platform"
        },
        {
          "type": "node",
          "ref": 12795211219,
          "role": "platform_exit_only"
        },
        {
          "type": "node",
          "ref": 5177699281,
          "role": "platform"
        }
      ],
      "tags": {
        "charge": "30000 VND",
        "fee": "yes",
        "from": "Sân bay Cần Thơ",
        "interval": "01:00-01:10",
        "name": "Sân bay Cần Thơ - Ba Se - Ô Môn",
        "network": "Xe buýt Cần Thơ",
        "opening_hours": "Mo-Su 05:30-17:30",
        "operator": "Công ty Cổ phần Xe khách Phương Trang - FUTA Bus Lines",
        "ref": "09",
        "route": "bus",
        "to": "Ô Môn",
        "type": "route",
        "via": "Ba Se"
      }
    },
    {
      "type": "node",
      "id": 1497118551,
      "lat": 9.9953673,
      "lon": 105.6687863
    },
    {
      "type": "node",
      "id": 1497118553,
      "lat": 9.9954593,
      "lon": 105.6691527
    },
    {
      "type": "node",
      "id": 6791323664,
      "lat": 9.9968604,
      "lon": 105.6687390
    },
    {
      "type": "node",
      "id": 6791323665,
      "lat": 9.9965458,
      "lon": 105.6687685
    },
    {
      "type": "node",
      "id": 6791323666,
      "lat": 9.9965605,
      "lon": 105.6688219
    },
    {
      "type": "node",
      "id": 6791323675,
      "lat": 9.9965922,
      "lon": 105.6688671
    },
    {
      "type": "node",
      "id": 6791323676,
      "lat": 9.9966372,
      "lon": 105.6688985
    },
    {
      "type": "node",
      "id": 6791323677,
      "lat": 9.9966901,
      "lon": 105.6689125
    },
    {
      "type": "node",
      "id": 6791323678,
      "lat": 9.9967445,
      "lon": 105.6689074
    },
    {
      "type": "node",
      "id": 6791323679,
      "lat": 9.9967939,
      "lon": 105.6688838
    },
    {
      "type": "node",
      "id": 6791323680,
      "lat": 9.9968325,
      "lon": 105.6688445
    },
    {
      "type": "node",
      "id": 6791323681,
      "lat": 9.9968556,
      "lon": 105.6687943
    },
    {
      "type": "node",
      "id": 6791323683,
      "lat": 9.9966686,
      "lon": 105.6689068
    },
    {
      "type": "node",
      "id": 6791338892,
      "lat": 9.9968484,
      "lon": 105.6686901
    },
    {
      "type": "node",
      "id": 6791338963,
      "lat": 9.9971882,
      "lon": 105.6683304
    },
    {
      "type": "node",
      "id": 6791338974,
      "lat": 9.9965516,
      "lon": 105.6687950
    },
    {
      "type": "node",
      "id": 10272570601,
      "lat": 9.9965475,
      "lon": 105.6687391
    },
    {
      "type": "node",
      "id": 11919860624,
      "lat": 9.9956100,
      "lon": 105.6695214
    },
    {
      "type": "node",
      "id": 11919860626,
      "lat": 9.9971191,
      "lon": 105.6684688
    },
    {
      "type": "node",
      "id": 1797213679,
      "lat": 10.0028108,
      "lon": 105.6590783
    },
    {
      "type": "node",
      "id": 5372122795,
      "lat": 10.0026043,
      "lon": 105.6619861
    },
    {
      "type": "node",
      "id": 5372122802,
      "lat": 10.0015222,
      "lon": 105.6602689
    },
    {
      "type": "node",
      "id": 5372122803,
      "lat": 10.0029912,
      "lon": 105.6615406
    },
    {
      "type": "node",
      "id": 5372122804,
      "lat": 10.0023985,
      "lon": 105.6594649
    },
    {
      "type": "node",
      "id": 6791338893,
      "lat": 10.0017943,
      "lon": 105.6629874
    },
    {
      "type": "node",
      "id": 6791338902,
      "lat": 10.0018664,
      "lon": 105.6628359
    },
    {
      "type": "node",
      "id": 11140307933,
      "lat": 10.0012529,
      "lon": 105.6636149
    },
    {
      "type": "node",
      "id": 12102682257,
      "lat": 10.0022083,
      "lon": 105.6625315
    },
    {
      "type": "node",
      "id": 12102682258,
      "lat": 10.0020652,
      "lon": 105.6606543
    },
    {
      "type": "node",
      "id": 12102682259,
      "lat": 10.0021670,
      "lon": 105.6597132
    },
    {
      "type": "node",
      "id": 6791338912,
      "lat": 9.9975366,
      "lon": 105.6679333
    },
    {
      "type": "node",
      "id": 6791338915,
      "lat": 9.9976089,
      "lon": 105.6678650
    },
    {
      "type": "node",
      "id": 6791338919,
      "lat": 10.0003408,
      "lon": 105.6646557
    },
    {
      "type": "node",
      "id": 6791338922,
      "lat": 10.0004208,
      "lon": 105.6645685
    },
    {
      "type": "node",
      "id": 6791338930,
      "lat": 9.9988629,
      "lon": 105.6664062
    },
    {
      "type": "node",
      "id": 6791338970,
      "lat": 9.9995916,
      "lon": 105.6655673
    },
    {
      "type": "node",
      "id": 10282425193,
      "lat": 9.9996590,
      "lon": 105.6654896
    },
    {
      "type": "node",
      "id": 11919860627,
      "lat": 9.9982091,
      "lon": 105.6673015
    },
    {
      "type": "node",
      "id": 11919860628,
      "lat": 9.9992675,
      "lon": 105.6660131
    },
    {
      "type": "node",
      "id": 11919860629,
      "lat": 10.0002384,
      "lon": 105.6648636
    },
    {
      "type": "node",
      "id": 12102682256,
      "lat": 10.0011209,
      "lon": 105.6638543
    },
    {
      "type": "node",
      "id": 12102716104,
      "lat": 10.0005567,
      "lon": 105.6644127
    },
    {
      "type": "node",
      "id": 1497118522,
      "lat": 9.9901720,
      "lon": 105.6814702
    },
    {
      "type": "node",
      "id": 7543128982,
      "lat": 9.9894420,
      "lon": 105.6830455
    },
    {
      "type": "node",
      "id": 7802651773,
      "lat": 9.9899854,
      "lon": 105.6818810
    },
    {
      "type": "node",
      "id": 9546560311,
      "lat": 9.9894700,
      "lon": 105.6829856
    },
    {
      "type": "node",
      "id": 9546560312,
      "lat": 9.9896116,
      "lon": 105.6826821
    },
    {
      "type": "node",
      "id": 11919860618,
      "lat": 9.9903290,
      "lon": 105.6813632
    },
    {
      "type": "node",
      "id": 1497118478,
      "lat": 9.9872903,
      "lon": 105.6893931
    },
    {
      "type": "node",
      "id": 1497118480,
      "lat": 9.9873703,
      "lon": 105.6889310
    },
    {
      "type": "node",
      "id": 1497118486,
      "lat": 9.9875852,
      "lon": 105.6880777
    },
    {
      "type": "node",
      "id": 1497118492,
      "lat": 9.9878801,
      "lon": 105.6868905
    },
    {
      "type": "node",
      "id": 1497118500,
      "lat": 9.9880234,
      "lon": 105.6863557
    },
    {
      "type": "node",
      "id": 1497118506,
      "lat": 9.9882804,
      "lon": 105.6855557
    },
    {
      "type": "node",
      "id": 1497118512,
      "lat": 9.9885584,
      "lon": 105.6848370
    },
    {
      "type": "node",
      "id": 1497118516,
      "lat": 9.9888660,
      "lon": 105.6842082
    },
    {
      "type": "node",
      "id": 8100720064,
      "lat": 9.9892804,
      "lon": 105.6833678
    },
    {
      "type": "node",
      "id": 11919860615,
      "lat": 9.9876626,
      "lon": 105.6879145
    },
    {
      "type": "node",
      "id": 11919860616,
      "lat": 9.9879103,
      "lon": 105.6868627
    },
    {
      "type": "node",
      "id": 11919860617,
      "lat": 9.9888750,
      "lon": 105.6842493
    },
    {
      "type": "node",
      "id": 6791323651,
      "lat": 9.9901314,
      "lon": 105.6914799
    },
    {
      "type": "node",
      "id": 6791323652,
      "lat": 9.9899519,
      "lon": 105.6920949
    },
    {
      "type": "node",
      "id": 6791323653,
      "lat": 9.9898476,
      "lon": 105.6929441
    },
    {
      "type": "node",
      "id": 6791323654,
      "lat": 9.9898806,
      "lon": 105.6936693
    },
    {
      "type": "node",
      "id": 6791323655,
      "lat": 9.9900233,
      "lon": 105.6942943
    },
    {
      "type": "node",
      "id": 10296005855,
      "lat": 9.9898515,
      "lon": 105.6933702
    },
    {
      "type": "node",
      "id": 10800813158,
      "lat": 9.9902610,
      "lon": 105.6951606
    },
    {
      "type": "node",
      "id": 10800813159,
      "lat": 9.9899176,
      "lon": 105.6938624
    },
    {
      "type": "node",
      "id": 10800813160,
      "lat": 9.9898965,
      "lon": 105.6923631
    },
    {
      "type": "node",
      "id": 11068319983,
      "lat": 9.9904403,
      "lon": 105.6906942
    },
    {
      "type": "node",
      "id": 11068319984,
      "lat": 9.9872037,
      "lon": 105.6901400
    },
    {
      "type": "node",
      "id": 11068319985,
      "lat": 9.9891364,
      "lon": 105.6904709
    },
    {
      "type": "node",
      "id": 11919860612,
      "lat": 9.9904058,
      "lon": 105.6953425
    },
    {
      "type": "node",
      "id": 11919860613,
      "lat": 9.9900470,
      "lon": 105.6919732
    },
    {
      "type": "node",
      "id": 11919860614,
      "lat": 9.9888657,
      "lon": 105.6903762
    },
    {
      "type": "node",
      "id": 1497118552,
      "lat": 9.9952240,
      "lon": 105.6767211
    },
    {
      "type": "node",
      "id": 1497118557,
      "lat": 9.9962121,
      "lon": 105.6714341
    },
    {
      "type": "node",
      "id": 1497118561,
      "lat": 9.9963424,
      "lon": 105.6757427
    },
    {
      "type": "node",
      "id": 1497118562,
      "lat": 9.9966286,
      "lon": 105.6725495
    },
    {
      "type": "node",
      "id": 1497118563,
      "lat": 9.9967947,
      "lon": 105.6753205
    },
    {
      "type": "node",
      "id": 1497118564,
      "lat": 9.9971076,
      "lon": 105.6735325
    },
    {
      "type": "node",
      "id": 1497118565,
      "lat": 9.9969811,
      "lon": 105.6749228
    },
    {
      "type": "node",
      "id": 1497118568,
      "lat": 9.9971688,
      "lon": 105.6740267
    },
    {
      "type": "node",
      "id": 6791338889,
      "lat": 9.9971734,
      "lon": 105.6737565
    },
    {
      "type": "node",
      "id": 6791338890,
      "lat": 9.9969081,
      "lon": 105.6751542
    },
    {
      "type": "node",
      "id": 6791403212,
      "lat": 9.9959662,
      "lon": 105.6706889
    },
    {
      "type": "node",
      "id": 6791415960,
      "lat": 9.9958176,
      "lon": 105.6762032
    },
    {
      "type": "node",
      "id": 9546609303,
      "lat": 9.9971206,
      "lon": 105.6742837
    },
    {
      "type": "node",
      "id": 11919860621,
      "lat": 9.9954374,
      "lon": 105.6765807
    },
    {
      "type": "node",
      "id": 11919860622,
      "lat": 9.9969457,
      "lon": 105.6731313
    },
    {
      "type": "node",
      "id": 11919860623,
      "lat": 9.9960504,
      "lon": 105.6708437
    },
    {
      "type": "node",
      "id": 1497118533,
      "lat": 9.9912541,
      "lon": 105.6799897
    },
    {
      "type": "node",
      "id": 1497118541,
      "lat": 9.9923385,
      "lon": 105.6789370
    },
    {
      "type": "node",
      "id": 1497118545,
      "lat": 9.9937327,
      "lon": 105.6778965
    },
    {
      "type": "node",
      "id": 8953336106,
      "lat": 9.9926366,
      "lon": 105.6787145
    },
    {
      "type": "node",
      "id": 11919860619,
      "lat": 9.9912159,
      "lon": 105.6801046
    },
    {
      "type": "node",
      "id": 11919860620,
      "lat": 9.9927824,
      "lon": 105.6786545
    },
    {
      "type": "node",
      "id": 1796727930,
      "lat": 10.0056490,
      "lon": 105.6561026
    },
    {
      "type": "node",
      "id": 1796727931,
      "lat": 10.0094370,
      "lon": 105.6527699
    },
    {
      "type": "node",
      "id": 1797213681,
      "lat": 10.0070234,
      "lon": 105.6548644
    },
    {
      "type": "node",
      "id": 1797213682,
      "lat": 10.0103397,
      "lon": 105.6522482
    },
    {
      "type": "node",
      "id": 12102682261,
      "lat": 10.0074221,
      "lon": 105.6545502
    },
    {
      "type": "node",
      "id": 12102682262,
      "lat": 10.0106279,
      "lon": 105.6521271
    },
    {
      "type": "node",
      "id": 1796727934,
      "lat": 10.0162540,
      "lon": 105.6496819
    },
    {
      "type": "node",
      "id": 1796727936,
      "lat": 10.0141880,
      "lon": 105.6505616
    },
    {
      "type": "node",
      "id": 1797213684,
      "lat": 10.0153251,
      "lon": 105.6499763
    },
    {
      "type": "node",
      "id": 1797213685,
      "lat": 10.0159461,
      "lon": 105.6497385
    },
    {
      "type": "node",
      "id": 12102682263,
      "lat": 10.0145242,
      "lon": 105.6504590
    },
    {
      "type": "node",
      "id": 12102682264,
      "lat": 10.0157700,
      "lon": 105.6498236
    },
    {
      "type": "node",
      "id": 1797213683,
      "lat": 10.0113130,
      "lon": 105.6517652
    },
    {
      "type": "node",
      "id": 8145648281,
      "lat": 10.0127180,
      "lon": 105.6512123
    },
    {
      "type": "node",
      "id": 1797213680,
      "lat": 10.0045306,
      "lon": 105.6572615
    },
    {
      "type": "node",
      "id": 12102682260,
      "lat": 10.0041060,
      "lon": 105.6577416
    },
    {
      "type": "node",
      "id": 1796727932,
      "lat": 10.0206016,
      "lon": 105.6501644
    },
    {
      "type": "node",
      "id": 1797213686,
      "lat": 10.0189716,
      "lon": 105.6500299
    },
    {
      "type": "node",
      "id": 12102682265,
      "lat": 10.0179368,
      "lon": 105.6499389
    },
    {
      "type": "node",
      "id": 5563434433,
      "lat": 10.0236774,
      "lon": 105.6511509
    },
    {
      "type": "node",
      "id": 7538879963,
      "lat": 10.0227908,
      "lon": 105.6508665
    },
    {
      "type": "node",
      "id": 12102682266,
      "lat": 10.0219489,
      "lon": 105.6506579
    },
    {
      "type": "node",
      "id": 1796727926,
      "lat": 10.0292867,
      "lon": 105.6513383
    },
    {
      "type": "node",
      "id": 1796727927,
      "lat": 10.0262012,
      "lon": 105.6517415
    },
    {
      "type": "node",
      "id": 1797213687,
      "lat": 10.0267113,
      "lon": 105.6517713
    },
    {
      "type": "node",
      "id": 1797213688,
      "lat": 10.0272933,
      "lon": 105.6517465
    },
    {
      "type": "node",
      "id": 7538933069,
      "lat": 10.0273248,
      "lon": 105.6517402
    },
    {
      "type": "node",
      "id": 7538966216,
      "lat": 10.0283331,
      "lon": 105.6516169
    },
    {
      "type": "node",
      "id": 7538966217,
      "lat": 10.0278427,
      "lon": 105.6517041
    },
    {
      "type": "node",
      "id": 7538966218,
      "lat": 10.0288898,
      "lon": 105.6514648
    },
    {
      "type": "node",
      "id": 7538966219,
      "lat": 10.0300656,
      "lon": 105.6510229
    },
    {
      "type": "node",
      "id": 7538966257,
      "lat": 10.0291102,
      "lon": 105.6513945
    },
    {
      "type": "node",
      "id": 12102682267,
      "lat": 10.0241699,
      "lon": 105.6512998
    },
    {
      "type": "node",
      "id": 12102682268,
      "lat": 10.0255562,
      "lon": 105.6516530
    },
    {
      "type": "node",
      "id": 12102716106,
      "lat": 10.0272346,
      "lon": 105.6517990
    },
    {
      "type": "node",
      "id": 1796728776,
      "lat": 10.0489371,
      "lon": 105.6437945
    },
    {
      "type": "node",
      "id": 1797213694,
      "lat": 10.0461367,
      "lon": 105.6439385
    },
    {
      "type": "node",
      "id": 1797213695,
      "lat": 10.0476968,
      "lon": 105.6435795
    },
    {
      "type": "node",
      "id": 1797213696,
      "lat": 10.0480959,
      "lon": 105.6436352
    },
    {
      "type": "node",
      "id": 8951087038,
      "lat": 10.0467623,
      "lon": 105.6437945
    },
    {
      "type": "node",
      "id": 1796727925,
      "lat": 10.0350032,
      "lon": 105.6457404
    },
    {
      "type": "node",
      "id": 1796727929,
      "lat": 10.0320872,
      "lon": 105.6498102
    },
    {
      "type": "node",
      "id": 1797213689,
      "lat": 10.0325109,
      "lon": 105.6493496
    },
    {
      "type": "node",
      "id": 1797213690,
      "lat": 10.0326366,
      "lon": 105.6491850
    },
    {
      "type": "node",
      "id": 1797213691,
      "lat": 10.0335883,
      "lon": 105.6479768
    },
    {
      "type": "node",
      "id": 1797213692,
      "lat": 10.0362980,
      "lon": 105.6446981
    },
    {
      "type": "node",
      "id": 7538971660,
      "lat": 10.0324956,
      "lon": 105.6493694
    },
    {
      "type": "node",
      "id": 7542097653,
      "lat": 10.0327275,
      "lon": 105.6490536
    },
    {
      "type": "node",
      "id": 8834860164,
      "lat": 10.0357464,
      "lon": 105.6449966
    },
    {
      "type": "node",
      "id": 8834860165,
      "lat": 10.0359326,
      "lon": 105.6448893
    },
    {
      "type": "node",
      "id": 8834860166,
      "lat": 10.0352750,
      "lon": 105.6454191
    },
    {
      "type": "node",
      "id": 8834860167,
      "lat": 10.0355761,
      "lon": 105.6451307
    },
    {
      "type": "node",
      "id": 12102716107,
      "lat": 10.0310993,
      "lon": 105.6504911
    },
    {
      "type": "node",
      "id": 12102716108,
      "lat": 10.0333288,
      "lon": 105.6483479
    },
    {
      "type": "node",
      "id": 12102716109,
      "lat": 10.0364803,
      "lon": 105.6446879
    },
    {
      "type": "node",
      "id": 7538966215,
      "lat": 10.0307166,
      "lon": 105.6506797
    },
    {
      "type": "node",
      "id": 1796727928,
      "lat": 10.0399751,
      "lon": 105.6443152
    },
    {
      "type": "node",
      "id": 1797213693,
      "lat": 10.0371867,
      "lon": 105.6444342
    },
    {
      "type": "node",
      "id": 8834860157,
      "lat": 10.0403803,
      "lon": 105.6443623
    },
    {
      "type": "node",
      "id": 8834860158,
      "lat": 10.0408610,
      "lon": 105.6444052
    },
    {
      "type": "node",
      "id": 8834860159,
      "lat": 10.0418382,
      "lon": 105.6443971
    },
    {
      "type": "node",
      "id": 8834860160,
      "lat": 10.0398415,
      "lon": 105.6442992
    },
    {
      "type": "node",
      "id": 8834860161,
      "lat": 10.0390320,
      "lon": 105.6442134
    },
    {
      "type": "node",
      "id": 8834860162,
      "lat": 10.0392077,
      "lon": 105.6442228
    },
    {
      "type": "node",
      "id": 8834860163,
      "lat": 10.0385500,
      "lon": 105.6442469
    },
    {
      "type": "node",
      "id": 12102716110,
      "lat": 10.0398142,
      "lon": 105.6443460
    },
    {
      "type": "node",
      "id": 12102716111,
      "lat": 10.0430548,
      "lon": 105.6444564
    },
    {
      "type": "node",
      "id": 1796728782,
      "lat": 10.0442404,
      "lon": 105.6443916
    },
    {
      "type": "node",
      "id": 7546067447,
      "lat": 10.0441047,
      "lon": 105.6443910
    },
    {
      "type": "node",
      "id": 7768481426,
      "lat": 10.0437793,
      "lon": 105.6443896
    },
    {
      "type": "node",
      "id": 12102716112,
      "lat": 10.0454184,
      "lon": 105.6441369
    },
    {
      "type": "node",
      "id": 1796728771,
      "lat": 10.0555917,
      "lon": 105.6473928
    },
    {
      "type": "node",
      "id": 1796728779,
      "lat": 10.0533257,
      "lon": 105.6461238
    },
    {
      "type": "node",
      "id": 1797213697,
      "lat": 10.0511368,
      "lon": 105.6442572
    },
    {
      "type": "node",
      "id": 1797213698,
      "lat": 10.0516352,
      "lon": 105.6444659
    },
    {
      "type": "node",
      "id": 1797213699,
      "lat": 10.0534007,
      "lon": 105.6468163
    },
    {
      "type": "node",
      "id": 1797213700,
      "lat": 10.0535317,
      "lon": 105.6469711
    },
    {
      "type": "node",
      "id": 1797213701,
      "lat": 10.0537281,
      "lon": 105.6470797
    },
    {
      "type": "node",
      "id": 1797213702,
      "lat": 10.0539435,
      "lon": 105.6471941
    },
    {
      "type": "node",
      "id": 1797213703,
      "lat": 10.0551086,
      "lon": 105.6477851
    },
    {
      "type": "node",
      "id": 1797213704,
      "lat": 10.0554015,
      "lon": 105.6476044
    },
    {
      "type": "node",
      "id": 7546128616,
      "lat": 10.0553672,
      "lon": 105.6476294
    },
    {
      "type": "node",
      "id": 7546191947,
      "lat": 10.0552024,
      "lon": 105.6477825
    },
    {
      "type": "node",
      "id": 7546191948,
      "lat": 10.0549925,
      "lon": 105.6477904
    },
    {
      "type": "node",
      "id": 7546326317,
      "lat": 10.0535142,
      "lon": 105.6469505
    },
    {
      "type": "node",
      "id": 12102716105,
      "lat": 10.0540522,
      "lon": 105.6472559
    },
    {
      "type": "node",
      "id": 12102716113,
      "lat": 10.0518619,
      "lon": 105.6447865
    },
    {
      "type": "node",
      "id": 12102716114,
      "lat": 10.0542076,
      "lon": 105.6473740
    },
    {
      "type": "node",
      "id": 12102716115,
      "lat": 10.0563175,
      "lon": 105.6468021
    },
    {
      "type": "node",
      "id": 1797213705,
      "lat": 10.0565995,
      "lon": 105.6465085
    },
    {
      "type": "node",
      "id": 1797213706,
      "lat": 10.0567870,
      "lon": 105.6464655
    },
    {
      "type": "node",
      "id": 1797213707,
      "lat": 10.0603985,
      "lon": 105.6463416
    },
    {
      "type": "node",
      "id": 8834799466,
      "lat": 10.0566665,
      "lon": 105.6464839
    },
    {
      "type": "node",
      "id": 8834879028,
      "lat": 10.0610651,
      "lon": 105.6462829
    },
    {
      "type": "node",
      "id": 12102716116,
      "lat": 10.0595139,
      "lon": 105.6464190
    },
    {
      "type": "node",
      "id": 12102716117,
      "lat": 10.0622268,
      "lon": 105.6462237
    },
    {
      "type": "node",
      "id": 1796728773,
      "lat": 10.0673410,
      "lon": 105.6490873
    },
    {
      "type": "node",
      "id": 1796728777,
      "lat": 10.0640816,
      "lon": 105.6462356
    },
    {
      "type": "node",
      "id": 1797213708,
      "lat": 10.0634385,
      "lon": 105.6460860
    },
    {
      "type": "node",
      "id": 1797213709,
      "lat": 10.0637142,
      "lon": 105.6460731
    },
    {
      "type": "node",
      "id": 1797213710,
      "lat": 10.0639189,
      "lon": 105.6461443
    },
    {
      "type": "node",
      "id": 1797213711,
      "lat": 10.0655326,
      "lon": 105.6477293
    },
    {
      "type": "node",
      "id": 1797213712,
      "lat": 10.0665962,
      "lon": 105.6486513
    },
    {
      "type": "node",
      "id": 7538421177,
      "lat": 10.0670465,
      "lon": 105.6489458
    },
    {
      "type": "node",
      "id": 7538421178,
      "lat": 10.0675319,
      "lon": 105.6491365
    },
    {
      "type": "node",
      "id": 7538421179,
      "lat": 10.0678967,
      "lon": 105.6491530
    },
    {
      "type": "node",
      "id": 7538421180,
      "lat": 10.0685730,
      "lon": 105.6491157
    },
    {
      "type": "node",
      "id": 7538421181,
      "lat": 10.0689481,
      "lon": 105.6490944
    },
    {
      "type": "node",
      "id": 7538421182,
      "lat": 10.0693627,
      "lon": 105.6491239
    },
    {
      "type": "node",
      "id": 7538720439,
      "lat": 10.0641379,
      "lon": 105.6462935
    },
    {
      "type": "node",
      "id": 8834995436,
      "lat": 10.0638222,
      "lon": 105.6461003
    },
    {
      "type": "node",
      "id": 12102716118,
      "lat": 10.0656775,
      "lon": 105.6478897
    },
    {
      "type": "node",
      "id": 12102716119,
      "lat": 10.0682526,
      "lon": 105.6491668
    },
    {
      "type": "node",
      "id": 1797213713,
      "lat": 10.0697748,
      "lon": 105.6491884
    },
    {
      "type": "node",
      "id": 1797213714,
      "lat": 10.0708833,
      "lon": 105.6495707
    },
    {
      "type": "node",
      "id": 1797213715,
      "lat": 10.0743078,
      "lon": 105.6496694
    },
    {
      "type": "node",
      "id": 7538421183,
      "lat": 10.0702789,
      "lon": 105.6493259
    },
    {
      "type": "node",
      "id": 7538421184,
      "lat": 10.0723033,
      "lon": 105.6495934
    },
    {
      "type": "node",
      "id": 7538453285,
      "lat": 10.0717148,
      "lon": 105.6496759
    },
    {
      "type": "node",
      "id": 7538453286,
      "lat": 10.0713070,
      "lon": 105.6496930
    },
    {
      "type": "node",
      "id": 7538453287,
      "lat": 10.0715347,
      "lon": 105.6496979
    },
    {
      "type": "node",
      "id": 7538453288,
      "lat": 10.0714446,
      "lon": 105.6497008
    },
    {
      "type": "node",
      "id": 7538453289,
      "lat": 10.0735624,
      "lon": 105.6494383
    },
    {
      "type": "node",
      "id": 7538453290,
      "lat": 10.0739556,
      "lon": 105.6494787
    },
    {
      "type": "node",
      "id": 7538453291,
      "lat": 10.0737907,
      "lon": 105.6494290
    },
    {
      "type": "node",
      "id": 7538453292,
      "lat": 10.0752908,
      "lon": 105.6501954
    },
    {
      "type": "node",
      "id": 10236070759,
      "lat": 10.0730095,
      "lon": 105.6495050
    },
    {
      "type": "node",
      "id": 12102716120,
      "lat": 10.0719978,
      "lon": 105.6496667
    },
    {
      "type": "node",
      "id": 12102716121,
      "lat": 10.0744889,
      "lon": 105.6498107
    },
    {
      "type": "node",
      "id": 7538453293,
      "lat": 10.0760973,
      "lon": 105.6506623
    },
    {
      "type": "node",
      "id": 1796728770,
      "lat": 10.0779144,
      "lon": 105.6525241
    },
    {
      "type": "node",
      "id": 1796728774,
      "lat": 10.0762765,
      "lon": 105.6507792
    },
    {
      "type": "node",
      "id": 1797213716,
      "lat": 10.0768579,
      "lon": 105.6513073
    },
    {
      "type": "node",
      "id": 1797213717,
      "lat": 10.0776429,
      "lon": 105.6523423
    },
    {
      "type": "node",
      "id": 1797213718,
      "lat": 10.0795922,
      "lon": 105.6533252
    },
    {
      "type": "node",
      "id": 1797213719,
      "lat": 10.0814831,
      "lon": 105.6540330
    },
    {
      "type": "node",
      "id": 1797213720,
      "lat": 10.0818879,
      "lon": 105.6540851
    },
    {
      "type": "node",
      "id": 1797213721,
      "lat": 10.0819798,
      "lon": 105.6540534
    },
    {
      "type": "node",
      "id": 1797213722,
      "lat": 10.0821903,
      "lon": 105.6538912
    },
    {
      "type": "node",
      "id": 1797213723,
      "lat": 10.0826857,
      "lon": 105.6533101
    },
    {
      "type": "node",
      "id": 4297838394,
      "lat": 10.0812276,
      "lon": 105.6539455
    },
    {
      "type": "node",
      "id": 7538453294,
      "lat": 10.0765745,
      "lon": 105.6510064
    },
    {
      "type": "node",
      "id": 7538453326,
      "lat": 10.0775103,
      "lon": 105.6522211
    },
    {
      "type": "node",
      "id": 7538720440,
      "lat": 10.0763373,
      "lon": 105.6508187
    },
    {
      "type": "node",
      "id": 7538720478,
      "lat": 10.0775635,
      "lon": 105.6522698
    },
    {
      "type": "node",
      "id": 7538979585,
      "lat": 10.0767414,
      "lon": 105.6511603
    },
    {
      "type": "node",
      "id": 7538979586,
      "lat": 10.0820824,
      "lon": 105.6539793
    },
    {
      "type": "node",
      "id": 7538979587,
      "lat": 10.0817933,
      "lon": 105.6540933
    },
    {
      "type": "node",
      "id": 7541997114,
      "lat": 10.0794328,
      "lon": 105.6532491
    },
    {
      "type": "node",
      "id": 10930035415,
      "lat": 10.0779723,
      "lon": 105.6525540
    },
    {
      "type": "node",
      "id": 10930035416,
      "lat": 10.0776782,
      "lon": 105.6523684
    },
    {
      "type": "node",
      "id": 12102716122,
      "lat": 10.0771221,
      "lon": 105.6517675
    },
    {
      "type": "node",
      "id": 12102716123,
      "lat": 10.0806452,
      "lon": 105.6537847
    },
    {
      "type": "node",
      "id": 2332935388,
      "lat": 10.1102310,
      "lon": 105.6164166
    },
    {
      "type": "node",
      "id": 2598564957,
      "lat": 10.1093601,
      "lon": 105.6176329
    },
    {
      "type": "node",
      "id": 2598564958,
      "lat": 10.1096108,
      "lon": 105.6172321
    },
    {
      "type": "node",
      "id": 5450103158,
      "lat": 10.1129143,
      "lon": 105.6135080
    },
    {
      "type": "node",
      "id": 5450103159,
      "lat": 10.1133327,
      "lon": 105.6131808
    },
    {
      "type": "node",
      "id": 5450103160,
      "lat": 10.1136948,
      "lon": 105.6129765
    },
    {
      "type": "node",
      "id": 5450103161,
      "lat": 10.1141650,
      "lon": 105.6127796
    },
    {
      "type": "node",
      "id": 5450103164,
      "lat": 10.1147202,
      "lon": 105.6125295
    },
    {
      "type": "node",
      "id": 5450103165,
      "lat": 10.1152179,
      "lon": 105.6122695
    },
    {
      "type": "node",
      "id": 9399767573,
      "lat": 10.1108344,
      "lon": 105.6157342
    },
    {
      "type": "node",
      "id": 9399767574,
      "lat": 10.1111435,
      "lon": 105.6154053
    },
    {
      "type": "node",
      "id": 9399767575,
      "lat": 10.1118876,
      "lon": 105.6146137
    },
    {
      "type": "node",
      "id": 11917454682,
      "lat": 10.1126395,
      "lon": 105.6138892
    },
    {
      "type": "node",
      "id": 11971692453,
      "lat": 10.1097191,
      "lon": 105.6170897
    },
    {
      "type": "node",
      "id": 12795211255,
      "lat": 10.1109191,
      "lon": 105.6156441
    },
    {
      "type": "node",
      "id": 12795211263,
      "lat": 10.1106349,
      "lon": 105.6159598
    },
    {
      "type": "node",
      "id": 12795211264,
      "lat": 10.1145073,
      "lon": 105.6126254
    },
    {
      "type": "node",
      "id": 5450103169,
      "lat": 10.1168989,
      "lon": 105.6106494
    },
    {
      "type": "node",
      "id": 5450103170,
      "lat": 10.1179127,
      "lon": 105.6096058
    },
    {
      "type": "node",
      "id": 5450103171,
      "lat": 10.1185348,
      "lon": 105.6089377
    },
    {
      "type": "node",
      "id": 5450103172,
      "lat": 10.1195490,
      "lon": 105.6078384
    },
    {
      "type": "node",
      "id": 5450103173,
      "lat": 10.1202630,
      "lon": 105.6070704
    },
    {
      "type": "node",
      "id": 5450103174,
      "lat": 10.1215584,
      "lon": 105.6057607
    },
    {
      "type": "node",
      "id": 8609152998,
      "lat": 10.1208933,
      "lon": 105.6064555
    },
    {
      "type": "node",
      "id": 11932189125,
      "lat": 10.1169070,
      "lon": 105.6106938
    },
    {
      "type": "node",
      "id": 5450103166,
      "lat": 10.1155414,
      "lon": 105.6120456
    },
    {
      "type": "node",
      "id": 5450103167,
      "lat": 10.1157938,
      "lon": 105.6118326
    },
    {
      "type": "node",
      "id": 5450103168,
      "lat": 10.1161239,
      "lon": 105.6114835
    },
    {
      "type": "node",
      "id": 5450103175,
      "lat": 10.1236032,
      "lon": 105.6035637
    },
    {
      "type": "node",
      "id": 5450103176,
      "lat": 10.1256135,
      "lon": 105.6014742
    },
    {
      "type": "node",
      "id": 5450103177,
      "lat": 10.1260708,
      "lon": 105.6009847
    },
    {
      "type": "node",
      "id": 5450103178,
      "lat": 10.1279365,
      "lon": 105.5989607
    },
    {
      "type": "node",
      "id": 7515529871,
      "lat": 10.1258670,
      "lon": 105.6012028
    },
    {
      "type": "node",
      "id": 7533736279,
      "lat": 10.1271591,
      "lon": 105.5998010
    },
    {
      "type": "node",
      "id": 8609152976,
      "lat": 10.1262925,
      "lon": 105.6007494
    },
    {
      "type": "node",
      "id": 11932189127,
      "lat": 10.1240301,
      "lon": 105.6031653
    },
    {
      "type": "node",
      "id": 11932189128,
      "lat": 10.1274638,
      "lon": 105.5995451
    },
    {
      "type": "node",
      "id": 12795211219,
      "lat": 10.1292824,
      "lon": 105.5976839
    },
    {
      "type": "node",
      "id": 12795211221,
      "lat": 10.1292152,
      "lon": 105.5976359
    },
    {
      "type": "node",
      "id": 11084957531,
      "lat": 10.1224025,
      "lon": 105.6048538
    },
    {
      "type": "node",
      "id": 11932189126,
      "lat": 10.1222422,
      "lon": 105.6050734
    },
    {
      "type": "node",
      "id": 1805719472,
      "lat": 10.1153687,
      "lon": 105.6216271
    },
    {
      "type": "node",
      "id": 2332935483,
      "lat": 10.1092039,
      "lon": 105.6179373
    },
    {
      "type": "node",
      "id": 5257368438,
      "lat": 10.1114958,
      "lon": 105.6205871
    },
    {
      "type": "node",
      "id": 6791530114,
      "lat": 10.1139015,
      "lon": 105.6216104
    },
    {
      "type": "node",
      "id": 6791530115,
      "lat": 10.1101696,
      "lon": 105.6200006
    },
    {
      "type": "node",
      "id": 6791530116,
      "lat": 10.1099407,
      "lon": 105.6198684
    },
    {
      "type": "node",
      "id": 6791530117,
      "lat": 10.1096992,
      "lon": 105.6196381
    },
    {
      "type": "node",
      "id": 6791530119,
      "lat": 10.1095165,
      "lon": 105.6193992
    },
    {
      "type": "node",
      "id": 6791530120,
      "lat": 10.1094409,
      "lon": 105.6192819
    },
    {
      "type": "node",
      "id": 6791530121,
      "lat": 10.1094116,
      "lon": 105.6191773
    },
    {
      "type": "node",
      "id": 6791530122,
      "lat": 10.1093738,
      "lon": 105.6190110
    },
    {
      "type": "node",
      "id": 6791530123,
      "lat": 10.1093150,
      "lon": 105.6182581
    },
    {
      "type": "node",
      "id": 6791530124,
      "lat": 10.1092877,
      "lon": 105.6181109
    },
    {
      "type": "node",
      "id": 6791530133,
      "lat": 10.1117288,
      "lon": 105.6206901
    },
    {
      "type": "node",
      "id": 6791530143,
      "lat": 10.1144058,
      "lon": 105.6217141
    },
    {
      "type": "node",
      "id": 7515539697,
      "lat": 10.1125055,
      "lon": 105.6210336
    },
    {
      "type": "node",
      "id": 7538236181,
      "lat": 10.1093832,
      "lon": 105.6190522
    },
    {
      "type": "node",
      "id": 11934852517,
      "lat": 10.1131976,
      "lon": 105.6212605
    },
    {
      "type": "node",
      "id": 11934852518,
      "lat": 10.1120386,
      "lon": 105.6207496
    },
    {
      "type": "node",
      "id": 11934852519,
      "lat": 10.1107834,
      "lon": 105.6202032
    },
    {
      "type": "node",
      "id": 12102716139,
      "lat": 10.1150967,
      "lon": 105.6215627
    },
    {
      "type": "node",
      "id": 12384169490,
      "lat": 10.1143673,
      "lon": 105.6216630
    },
    {
      "type": "node",
      "id": 12384169491,
      "lat": 10.1144932,
      "lon": 105.6217062
    },
    {
      "type": "node",
      "id": 6791530160,
      "lat": 10.1171346,
      "lon": 105.6238442
    },
    {
      "type": "node",
      "id": 6791530161,
      "lat": 10.1173113,
      "lon": 105.6242612
    },
    {
      "type": "node",
      "id": 6791530162,
      "lat": 10.1167983,
      "lon": 105.6232499
    },
    {
      "type": "node",
      "id": 6791530163,
      "lat": 10.1166431,
      "lon": 105.6230259
    },
    {
      "type": "node",
      "id": 6791530164,
      "lat": 10.1164594,
      "lon": 105.6228218
    },
    {
      "type": "node",
      "id": 6791530165,
      "lat": 10.1162649,
      "lon": 105.6226513
    },
    {
      "type": "node",
      "id": 6791530166,
      "lat": 10.1161472,
      "lon": 105.6225323
    },
    {
      "type": "node",
      "id": 6791530167,
      "lat": 10.1160451,
      "lon": 105.6224152
    },
    {
      "type": "node",
      "id": 6791530168,
      "lat": 10.1155522,
      "lon": 105.6217458
    },
    {
      "type": "node",
      "id": 6791530169,
      "lat": 10.1157075,
      "lon": 105.6219476
    },
    {
      "type": "node",
      "id": 7512711134,
      "lat": 10.1173205,
      "lon": 105.6242839
    },
    {
      "type": "node",
      "id": 7512711135,
      "lat": 10.1171542,
      "lon": 105.6238931
    },
    {
      "type": "node",
      "id": 7515365531,
      "lat": 10.1161139,
      "lon": 105.6224942
    },
    {
      "type": "node",
      "id": 8837512283,
      "lat": 10.1169760,
      "lon": 105.6235638
    },
    {
      "type": "node",
      "id": 10295690618,
      "lat": 10.1158874,
      "lon": 105.6221968
    },
    {
      "type": "node",
      "id": 12102716138,
      "lat": 10.1165700,
      "lon": 105.6229000
    },
    {
      "type": "node",
      "id": 1805719450,
      "lat": 10.1183027,
      "lon": 105.6267265
    },
    {
      "type": "node",
      "id": 1805719460,
      "lat": 10.1182314,
      "lon": 105.6264321
    },
    {
      "type": "node",
      "id": 2332935349,
      "lat": 10.1177145,
      "lon": 105.6286801
    },
    {
      "type": "node",
      "id": 2332935350,
      "lat": 10.1181971,
      "lon": 105.6272844
    },
    {
      "type": "node",
      "id": 2338816272,
      "lat": 10.1175619,
      "lon": 105.6248292
    },
    {
      "type": "node",
      "id": 2353373132,
      "lat": 10.1177479,
      "lon": 105.6285873
    },
    {
      "type": "node",
      "id": 7515333177,
      "lat": 10.1175253,
      "lon": 105.6292895
    },
    {
      "type": "node",
      "id": 7523500344,
      "lat": 10.1179440,
      "lon": 105.6280185
    },
    {
      "type": "node",
      "id": 11084907326,
      "lat": 10.1173588,
      "lon": 105.6298220
    },
    {
      "type": "node",
      "id": 12102716136,
      "lat": 10.1170626,
      "lon": 105.6308713
    },
    {
      "type": "node",
      "id": 12102716137,
      "lat": 10.1182189,
      "lon": 105.6272632
    },
    {
      "type": "node",
      "id": 7515240503,
      "lat": 10.1150520,
      "lon": 105.6374773
    },
    {
      "type": "node",
      "id": 12102716134,
      "lat": 10.1151803,
      "lon": 105.6371949
    },
    {
      "type": "node",
      "id": 2332935322,
      "lat": 10.1140438,
      "lon": 105.6407661
    },
    {
      "type": "node",
      "id": 2332935325,
      "lat": 10.1143266,
      "lon": 105.6398204
    },
    {
      "type": "node",
      "id": 2338816264,
      "lat": 10.1150169,
      "lon": 105.6375904
    },
    {
      "type": "node",
      "id": 2341433219,
      "lat": 10.1146930,
      "lon": 105.6386775
    },
    {
      "type": "node",
      "id": 11917454675,
      "lat": 10.1140696,
      "lon": 105.6408004
    },
    {
      "type": "node",
      "id": 12102716133,
      "lat": 10.1147407,
      "lon": 105.6386158
    },
    {
      "type": "node",
      "id": 2338816259,
      "lat": 10.1167064,
      "lon": 105.6319179
    },
    {
      "type": "node",
      "id": 2338816261,
      "lat": 10.1160791,
      "lon": 105.6339972
    },
    {
      "type": "node",
      "id": 2338816262,
      "lat": 10.1161412,
      "lon": 105.6337955
    },
    {
      "type": "node",
      "id": 7512711002,
      "lat": 10.1164627,
      "lon": 105.6327356
    },
    {
      "type": "node",
      "id": 7512711033,
      "lat": 10.1167627,
      "lon": 105.6317291
    },
    {
      "type": "node",
      "id": 7515280749,
      "lat": 10.1165443,
      "lon": 105.6324620
    },
    {
      "type": "node",
      "id": 11084919981,
      "lat": 10.1168142,
      "lon": 105.6315644
    },
    {
      "type": "node",
      "id": 12102716135,
      "lat": 10.1162475,
      "lon": 105.6335623
    },
    {
      "type": "node",
      "id": 1796728769,
      "lat": 10.0868133,
      "lon": 105.6546123
    },
    {
      "type": "node",
      "id": 1797213724,
      "lat": 10.0828605,
      "lon": 105.6532276
    },
    {
      "type": "node",
      "id": 1797213725,
      "lat": 10.0829488,
      "lon": 105.6532147
    },
    {
      "type": "node",
      "id": 1797213726,
      "lat": 10.0830559,
      "lon": 105.6532090
    },
    {
      "type": "node",
      "id": 1797213727,
      "lat": 10.0839091,
      "lon": 105.6535355
    },
    {
      "type": "node",
      "id": 1797213728,
      "lat": 10.0847291,
      "lon": 105.6540181
    },
    {
      "type": "node",
      "id": 1797213729,
      "lat": 10.0854240,
      "lon": 105.6545660
    },
    {
      "type": "node",
      "id": 1797213730,
      "lat": 10.0855291,
      "lon": 105.6546293
    },
    {
      "type": "node",
      "id": 1797213731,
      "lat": 10.0856691,
      "lon": 105.6546652
    },
    {
      "type": "node",
      "id": 1797213732,
      "lat": 10.0869118,
      "lon": 105.6546387
    },
    {
      "type": "node",
      "id": 1797213733,
      "lat": 10.0870847,
      "lon": 105.6547482
    },
    {
      "type": "node",
      "id": 1797213734,
      "lat": 10.0872655,
      "lon": 105.6549383
    },
    {
      "type": "node",
      "id": 1797213735,
      "lat": 10.0883753,
      "lon": 105.6563393
    },
    {
      "type": "node",
      "id": 1797213736,
      "lat": 10.0890510,
      "lon": 105.6566458
    },
    {
      "type": "node",
      "id": 4297835437,
      "lat": 10.0884622,
      "lon": 105.6564031
    },
    {
      "type": "node",
      "id": 4297838052,
      "lat": 10.0857704,
      "lon": 105.6546597
    },
    {
      "type": "node",
      "id": 4552624082,
      "lat": 10.0836804,
      "lon": 105.6534257
    },
    {
      "type": "node",
      "id": 5257368488,
      "lat": 10.0887963,
      "lon": 105.6565587
    },
    {
      "type": "node",
      "id": 7538979588,
      "lat": 10.0827651,
      "lon": 105.6532618
    },
    {
      "type": "node",
      "id": 7538979589,
      "lat": 10.0842584,
      "lon": 105.6537044
    },
    {
      "type": "node",
      "id": 7538979590,
      "lat": 10.0849530,
      "lon": 105.6541671
    },
    {
      "type": "node",
      "id": 7538979591,
      "lat": 10.0851735,
      "lon": 105.6543387
    },
    {
      "type": "node",
      "id": 7538979592,
      "lat": 10.0870022,
      "lon": 105.6546888
    },
    {
      "type": "node",
      "id": 7538979593,
      "lat": 10.0866877,
      "lon": 105.6546049
    },
    {
      "type": "node",
      "id": 7538979594,
      "lat": 10.0855995,
      "lon": 105.6546527
    },
    {
      "type": "node",
      "id": 7538979622,
      "lat": 10.0831666,
      "lon": 105.6532241
    },
    {
      "type": "node",
      "id": 12102716124,
      "lat": 10.0845761,
      "lon": 105.6539706
    },
    {
      "type": "node",
      "id": 12102716125,
      "lat": 10.0874978,
      "lon": 105.6553263
    },
    {
      "type": "node",
      "id": 12102716126,
      "lat": 10.0883052,
      "lon": 105.6563344
    },
    {
      "type": "node",
      "id": 1797213737,
      "lat": 10.0894647,
      "lon": 105.6568110
    },
    {
      "type": "node",
      "id": 4551405055,
      "lat": 10.0897052,
      "lon": 105.6569325
    },
    {
      "type": "node",
      "id": 1796728778,
      "lat": 10.0930181,
      "lon": 105.6589240
    },
    {
      "type": "node",
      "id": 1797213738,
      "lat": 10.0904219,
      "lon": 105.6572521
    },
    {
      "type": "node",
      "id": 1797213739,
      "lat": 10.0915793,
      "lon": 105.6581315
    },